<?xml version="1.0" encoding="utf-8" ?><mappins>
<mappin name='Le 21' address='21, rue Mazarine' type='restaurant' stop='4, 10-Odéon' lat='48.85502' lon='2.337891' pincolor='6495ED' pintext='&lt;b&gt;Le 21&lt;/b&gt;&lt;br /&gt;&lt;br /&gt;21, rue Mazarine&lt;br /&gt;ParisByMouth,HungryForParis'/>
<mappin name='Le 66' address='66, avenue des Champs-Elysees' type='shop' note='Guilt-Free Paris Fashion' stop='Metro??' lat='48.8702023' lon=' 2.306015' pincolor='8080' pintext='&lt;b&gt;Le 66&lt;/b&gt;&lt;br /&gt;&lt;br /&gt;66, avenue des Champs-Elysees&lt;br /&gt;Gridskipper'/>
<mappin name='Le 104' address='104, rue d&#39;Aubervilliers' type='shop' stop='Metro??' lat='48.8904516' lon='2.3684910' pincolor='8080' pintext='&lt;b&gt;Le 104&lt;/b&gt;&lt;br /&gt;&lt;br /&gt;104, rue d&#39;Aubervilliers'/>
<mappin name='215' address='215, rue Saint-Honore' type='patisserie' stop='Tuileries' lat='48.865519' lon='2.33066' pincolor='E6E6FA' pintext='&lt;b&gt;215&lt;/b&gt;&lt;br /&gt;&lt;br /&gt;215, rue Saint-Honore&lt;br /&gt;PatisseriesOfParis'/>
<mappin name='Le 404' address='69, rue des Gravilliers' type='food' note='north african' stop='Metro??' lat='48.864408' lon=' 2.354276' pincolor='778899' pintext='&lt;b&gt;Le 404&lt;/b&gt;&lt;br /&gt;&lt;br /&gt;69, rue des Gravilliers'/>
<mappin name='1728' address='8, rue d"Anjou' type='cafe' stop='Concorde, Madeleine' lat='48.869863' lon='2.32081' pincolor='6495ED' pintext='&lt;b&gt;1728&lt;/b&gt;&lt;br /&gt;&lt;br /&gt;8, rue d"Anjou&lt;br /&gt;PatisseriesOfParis'/>
<mappin name='6036' address='82, rue Jean Pierre Timbaud' type='restaurant' webpage='http://www.resto6036.com/' stop='2-Couronnes|Parmentier-14' lat='48.8672657' lon='2.3765162' pincolor='6495ED' pintext='&lt;b&gt;6036&lt;/b&gt;&lt;br /&gt;&lt;br /&gt;82, rue Jean Pierre Timbaud&lt;br /&gt;ParisByMouth'/>
<mappin name='Malovany-Chevalier, Sheila' address='24, rue des Carmes' type='thistime' stop='Maubert - Mutualité (10)' lat='48.848539' lon=' 2.347282' pincolor='FF69B4' pintext='&lt;b&gt;Malovany-Chevalier, Sheila&lt;/b&gt;&lt;br /&gt;&lt;br /&gt;24, rue des Carmes'/>
<mappin name='205 rue du Faubourg' address='205, rue du Faubourg Saint Martin' type='thistime' note='Appartment' stop='Metro??' lat='48.880097' lon=' 2.363797' pincolor='FF69B4' pintext='&lt;b&gt;205 rue du Faubourg&lt;/b&gt;&lt;br /&gt;&lt;br /&gt;205, rue du Faubourg Saint Martin'/>
<mappin name='22 Rue de Moscou' address='22 Rue de Moscou' type='' note='Rainy Day site' stop='Metro??' lat='48.880669' lon=' 2.324915' pincolor='' pintext=''/>
<mappin name='23, avenue de Messine' address='23, avenue de Messine' type='building' stop='Metro??' lat='48.8769404' lon=' 2.3118241' pincolor='A0A0A0' pintext='&lt;b&gt;23, avenue de Messine&lt;/b&gt;&lt;br /&gt;&lt;br /&gt;23, avenue de Messine'/>
<mappin name='3 par 5' address='25, rue des Martyrs' type='shop' note='Shopping Rue des Martyrs' stop='Metro??' lat='48.8785011' lon=' 2.3396102' pincolor='8080' pintext='&lt;b&gt;3 par 5&lt;/b&gt;&lt;br /&gt;&lt;br /&gt;25, rue des Martyrs&lt;br /&gt;Gridskipper'/>
<mappin name='3 Rooms' address='5, rue de Moussy' type='hotel' note='The Best Marais Hotels' stop='Metro??' lat='48.8572738' lon=' 2.3567478' pincolor='DCDCDC' pintext='&lt;b&gt;3 Rooms&lt;/b&gt;&lt;br /&gt;&lt;br /&gt;5, rue de Moussy&lt;br /&gt;Gridskipper'/>
<mappin name='Le 39V' address='39, avenue George V (entrance at 17 rue Quentin-Bauchart)' type='restaurant' webpage='http://www.le39v.com/' stop='1-George V' lat='48.8698226' lon='2.300484' pincolor='6495ED' pintext='&lt;b&gt;Le 39V&lt;/b&gt;&lt;br /&gt;&lt;br /&gt;39, avenue George V (entrance at 17 rue Quentin-Bauchart)&lt;br /&gt;ParisByMouth'/>
<mappin name='47, rue Vieille du Temple' address='47, rue Vieille du Temple' type='tosee' webpage='Beaumarchaiss House -- Carved Doors' stop='Metro??' lat='48.8582298' lon='2.3577917' pincolor='FB7EFD' pintext=''/>
<mappin name='55 Quai' address='55, Quai du Point du Jour' type='tosee' note='Paris by Boat' stop='Metro??' lat='48.8277078' lon=' 2.2529275' pincolor='FB7EFD' pintext='&lt;b&gt;55 Quai&lt;/b&gt;&lt;br /&gt;&lt;br /&gt;55, Quai du Point du Jour&lt;br /&gt;Gridskipper'/>
<mappin name='58 Qualit&#233; Street' address='58, rue de la Montagne-Sainte-Genevi&#232;ve' type='restaurant' stop='10-Cardinal Lemoine|Maubert – Mutualité-24' lat='48.8471682' lon='2.3481341' pincolor='6495ED' pintext='&lt;b&gt;58 Qualit&#233; Street&lt;/b&gt;&lt;br /&gt;&lt;br /&gt;58, rue de la Montagne-Sainte-Genevi&#232;ve&lt;br /&gt;ParisByMouth'/>
<mappin name='Le 6 Paul Bert ' address='6 rue Paul Bert' type='restaurant' stop='9-Charonne|Faidherbe-Chaligny-22' lat='48.8513367' lon='2.3846857' pincolor='6495ED' pintext='&lt;b&gt;Le 6 Paul Bert &lt;/b&gt;&lt;br /&gt;&lt;br /&gt;6 rue Paul Bert&lt;br /&gt;David Lebovitz, ParisByMouth'/>
<mappin name='9, quia Malaquais' address='9, quia Malaquais' type='building' stop='Metro??' lat='48.8578124' lon=' 2.3353949' pincolor='A0A0A0' pintext='&lt;b&gt;9, quia Malaquais&lt;/b&gt;&lt;br /&gt;&lt;br /&gt;9, quia Malaquais'/>
<mappin name='A l&#39;Olivier' address='23, rue de Rivoili' type='food' stop='Metro??' lat='48.8562739' lon='2.3566151' pincolor='778899' pintext='&lt;b&gt;A l&#39;Olivier&lt;/b&gt;&lt;br /&gt;&lt;br /&gt;23, rue de Rivoili&lt;br /&gt;GSoP'/>
<mappin name='A Priori The' address='35, Galerie Vivienne' type='cafe' stop='Bourse, Palais Royal-Musee du Louvre' lat='48.867133' lon=' 2.339443' pincolor='6495ED' pintext='&lt;b&gt;A Priori The&lt;/b&gt;&lt;br /&gt;&lt;br /&gt;35, Galerie Vivienne&lt;br /&gt;PatisseriesOfParis,C&amp;Z'/>
<mappin name='A. Simon' address='48, rue Montmartre' type='shop' note='Cookware' stop='Metro??' lat='48.8652390' lon='2.3450340' pincolor='8080' pintext='&lt;b&gt;A. Simon&lt;/b&gt;&lt;br /&gt;&lt;br /&gt;48, rue Montmartre&lt;br /&gt;C&amp;Z Shops/David Lebovitz'/>
<mappin name='Abbesses Metro Station' address='Rue des Abbesses' type='tosee' note='Most Beautiful Metro Stations' stop='12-Abbesses' lat='48.88433' lon=' 2.33863' pincolor='FB7EFD' pintext='&lt;b&gt;Abbesses Metro Station&lt;/b&gt;&lt;br /&gt;&lt;br /&gt;Rue des Abbesses'/>
<mappin name='The Abbey Bookshop' address='29, rue de la Parcheminerie' type='shop' note='(Some Of) Paris&#39; Best Bookstores' stop='Metro??' lat='48.851827' lon=' 2.344521' pincolor='8080' pintext='&lt;b&gt;The Abbey Bookshop&lt;/b&gt;&lt;br /&gt;&lt;br /&gt;29, rue de la Parcheminerie&lt;br /&gt;Gridskipper'/>
<mappin name='L&#39;Abeille' address='10, avenue d&#39;I&#233;na' type='restaurant' webpage='http://www.shangri-la.com/fr/paris/shangrila/dining/' stop='9-Iéna' lat='48.8634848' lon='2.292852' pincolor='6495ED' pintext='&lt;b&gt;L&#39;Abeille&lt;/b&gt;&lt;br /&gt;&lt;br /&gt;10, avenue d&#39;I&#233;na&lt;br /&gt;ParisByMouth'/>
<mappin name='Les Abeilles' address='21, rue de la Butte aux Cailles' type='food' note='Honey' stop='Metro??' lat='48.827600' lon=' 2.349495' pincolor='778899' pintext='&lt;b&gt;Les Abeilles&lt;/b&gt;&lt;br /&gt;&lt;br /&gt;21, rue de la Butte aux Cailles&lt;br /&gt;C&amp;Z'/>
<mappin name='L&#39;Abordage' address='2, place Henri-Bergson' type='restaurant' webpage='http://www.tailevent.com' note='$$ Mon-Fri Lun Wed Din ' stop='Saint-Augustin' lat='48.876161' lon=' 2.321183' pincolor='6495ED' pintext='&lt;b&gt;L&#39;Abordage&lt;/b&gt;&lt;br /&gt;&lt;br /&gt;2, place Henri-Bergson&lt;br /&gt;HungryForParis'/>
<mappin name='Ace Mart' address='63, rue Saint-Anne' type='food' note='Korean/Japanese supermarket' stop='Metro??' lat='48.8795527' lon='2.3737153' pincolor='778899' pintext='&lt;b&gt;Ace Mart&lt;/b&gt;&lt;br /&gt;&lt;br /&gt;63, rue Saint-Anne&lt;br /&gt;David Lebovitz'/>
<mappin name='Afaria' address='15, rue Desnouettes' type='restaurant' stop='Metro??' lat='48.8360479' lon=' 2.2915431' pincolor='6495ED' pintext='&lt;b&gt;Afaria&lt;/b&gt;&lt;br /&gt;&lt;br /&gt;15, rue Desnouettes&lt;br /&gt;Markets of Paris'/>
<mappin name='Les Affranchis' address='5, rue Henri Monnier' type='restaurant' webpage='http://www.restaurantlesaffranchis.fr/' stop='2, 12-Pigalle' lat='48.8795553' lon='2.336812' pincolor='6495ED' pintext='&lt;b&gt;Les Affranchis&lt;/b&gt;&lt;br /&gt;&lt;br /&gt;5, rue Henri Monnier&lt;br /&gt;ParisByMouth'/>
<mappin name='Agap&#233; Bis' address='75, avenue Niel' type='restaurant' webpage='http://www.agape-bis.com/' stop='3-Pereire' lat='48.882556' lon='2.296182' pincolor='6495ED' pintext='&lt;b&gt;Agap&#233; Bis&lt;/b&gt;&lt;br /&gt;&lt;br /&gt;75, avenue Niel&lt;br /&gt;ParisByMouth'/>
<mappin name='Agape Substance' address='66, rue Mazarine' type='restaurant' stop='Metro??' lat='48.8544136' lon='2.3379929' pincolor='6495ED' pintext='&lt;b&gt;Agape Substance&lt;/b&gt;&lt;br /&gt;&lt;br /&gt;66, rue Mazarine&lt;br /&gt;Fodors'/>
<mappin name='Agap&#233; Substance' address='66, rue Mazarine' type='restaurant' webpage='http://www.agapesubstance.com/#/en/home/' stop='4, 10-Odéon' lat='48.8544278' lon='2.3378673' pincolor='6495ED' pintext='&lt;b&gt;Agap&#233; Substance&lt;/b&gt;&lt;br /&gt;&lt;br /&gt;66, rue Mazarine&lt;br /&gt;ParisByMouth'/>
<mappin name='Agatha Ruiz de la Prada' address='9, rue Guenegaud' type='restaurant' note='Parisian Fashion Plates: Where Dessert and Design Collide' stop='Metro??' lat='48.856107' lon='2.339379' pincolor='6495ED' pintext='&lt;b&gt;Agatha Ruiz de la Prada&lt;/b&gt;&lt;br /&gt;&lt;br /&gt;9, rue Guenegaud&lt;br /&gt;Gridskipper'/>
<mappin name='Agn&#232;s B' address='2, rue du Jour' type='restaurant' note='Parisian Fashion Plates: Where Dessert and Design Collide' stop='Metro??' lat='48.863317' lon=' 2.34498' pincolor='6495ED' pintext='&lt;b&gt;Agn&#232;s B&lt;/b&gt;&lt;br /&gt;&lt;br /&gt;2, rue du Jour&lt;br /&gt;Gridskipper'/>
<mappin name='L&#39;Agrume' address='15, rue des Fosses St-Marcel' type='bistro' webpage='http://www.restaurantlagrume.fr/' note='lunch and dinner (tasting menu) open kitchen' stop='Metro??' lat='48.8387830' lon='2.3561591' pincolor='6495ED' pintext='&lt;b&gt;L&#39;Agrume&lt;/b&gt;&lt;br /&gt;&lt;br /&gt;15, rue des Fosses St-Marcel&lt;br /&gt;BBC'/>
<mappin name='Aide au Travail des Clo&#238;tres' address='avenue Denfert-Rochereau' type='food' note='Artisan goods from monateries' stop='Metro??' lat='48.836766' lon=' 2.334716' pincolor='778899' pintext='&lt;b&gt;Aide au Travail des Clo&#238;tres&lt;/b&gt;&lt;br /&gt;&lt;br /&gt;avenue Denfert-Rochereau&lt;br /&gt;C&amp;Z'/>
<mappin name='Aire de jeux de la rue Hel&#232;ne' address='' type='park' stop='Metro??' lat='48.886398' lon=' 2.325039' pincolor='32CD32' pintext='&lt;b&gt;Aire de jeux de la rue Hel&#232;ne&lt;/b&gt;'/>
<mappin name='Aki Kuroda' address='15, rue du Colonel Driant' type='streetart' note='Street Art' stop='Metro??' lat='48.863761' lon='2.338792' pincolor='FF69B4' pintext='&lt;b&gt;Aki Kuroda&lt;/b&gt;&lt;br /&gt;&lt;br /&gt;15, rue du Colonel Driant'/>
<mappin name='Akrame' address='19, rue Lauriston' type='restaurant' webpage='http://www.akrame.com/' stop='1, 2, 6, RER A-Étoile' lat='48.8714325' lon='2.2924576' pincolor='6495ED' pintext='&lt;b&gt;Akrame&lt;/b&gt;&lt;br /&gt;&lt;br /&gt;19, rue Lauriston&lt;br /&gt;ParisByMouth'/>
<mappin name='Al Taglio' address='27, rue de Saintonge' type='restaurant' webpage='http://www.altaglio.fr/' stop='8-Filles du Calvaire' lat='48.8622213' lon='2.3630073' pincolor='6495ED' pintext='&lt;b&gt;Al Taglio&lt;/b&gt;&lt;br /&gt;&lt;br /&gt;27, rue de Saintonge&lt;br /&gt;ParisByMouth'/>
<mappin name='Al Taglio ' address='2, bis rue Neuve Popincourt' type='restaurant' webpage='http://www.altaglio.fr/' stop='3-Parmentier' lat='48.8648616' lon='2.3737241' pincolor='6495ED' pintext='&lt;b&gt;Al Taglio &lt;/b&gt;&lt;br /&gt;&lt;br /&gt;2, bis rue Neuve Popincourt&lt;br /&gt;ParisByMouth'/>
<mappin name='Alain Ducasse au Plaza Athenee' address='15, avenue Montaigne' type='restaurant' webpage='http://www.alain-ducasse.com' note='$$$$ Thu-Fri Lun-Din Mon-Wed Di' stop='Alma Marceau' lat='48.865572' lon='2.303234' pincolor='6495ED' pintext='&lt;b&gt;Alain Ducasse au Plaza Athenee&lt;/b&gt;&lt;br /&gt;&lt;br /&gt;15, avenue Montaigne&lt;br /&gt;HungryForParis'/>
<mappin name='Alain Milliat' address='159, rue de Grenelle' type='restaurant' stop='8-La Tour Maubourg' lat='48.8576783' lon='2.3064734' pincolor='6495ED' pintext='&lt;b&gt;Alain Milliat&lt;/b&gt;&lt;br /&gt;&lt;br /&gt;159, rue de Grenelle&lt;br /&gt;ParisByMouth'/>
<mappin name='Albion' address='80, rue du Faubourg Poissoni&#232;re' type='restaurant' webpage='http://www.restaurantalbion.com/' note='_TWTFS_French, Mediteranean' stop='7-Poissonière' lat='48.8765957' lon='2.3488843' pincolor='6495ED' pintext='&lt;b&gt;Albion&lt;/b&gt;&lt;br /&gt;&lt;br /&gt;80, rue du Faubourg Poissoni&#232;re&lt;br /&gt;ParisByMouth'/>
<mappin name='Alcazar' address='62, rue Mazarine' type='restaurant' webpage='http://www.alcazar.fr' note='$$$ Daily Lun-Din The Stunning Brasseries of Paris' stop='Odeon' lat='48.8553935' lon=' 2.3377521' pincolor='6495ED' pintext='&lt;b&gt;Alcazar&lt;/b&gt;&lt;br /&gt;&lt;br /&gt;62, rue Mazarine&lt;br /&gt;HungryForParis'/>
<mappin name='Alfredo Positano' address='9, rue Guisarde' type='dessert' note='The Best Pie Holes in Paris' stop='Metro??' lat='48.8518898' lon=' 2.3346993' pincolor='E6E6FA' pintext='&lt;b&gt;Alfredo Positano&lt;/b&gt;&lt;br /&gt;&lt;br /&gt;9, rue Guisarde&lt;br /&gt;Gridskipper'/>
<mappin name='L&#39;Alimentari' address='6, rue des Ecouffes' type='restaurant' stop='1-St. Paul' lat='48.8564745' lon='2.3584253' pincolor='6495ED' pintext='&lt;b&gt;L&#39;Alimentari&lt;/b&gt;&lt;br /&gt;&lt;br /&gt;6, rue des Ecouffes&lt;br /&gt;ParisByMouth'/>
<mappin name='Allard' address='41, Rue Saint-Andr&#233; des Arts' type='restaurant' webpage='http://www.alain-ducasse.com/en/restaurant/allard' stop='4-Saint-Michel' lat='48.8532489' lon='2.3409813' pincolor='6495ED' pintext='&lt;b&gt;Allard&lt;/b&gt;&lt;br /&gt;&lt;br /&gt;41, Rue Saint-Andr&#233; des Arts&lt;br /&gt;ParisByMouth'/>
<mappin name='Allee Arthur-Rimbaud' address='' type='park' stop='Metro??' lat='48.8347180' lon=' 2.3770051' pincolor='32CD32' pintext='&lt;b&gt;Allee Arthur-Rimbaud&lt;/b&gt;'/>
<mappin name='Allee de Brouillards' address='Allee de Brouillards' type='street' note='Montmartre' stop='Metro??' lat='48.888626' lon=' 2.337625' pincolor='FFFFF0' pintext='&lt;b&gt;Allee de Brouillards&lt;/b&gt;&lt;br /&gt;&lt;br /&gt;Allee de Brouillards'/>
<mappin name='Allee des Cygnes' address='' type='park' stop='Metro??' lat='48.8516667' lon=' 2.2819444' pincolor='32CD32' pintext='&lt;b&gt;Allee des Cygnes&lt;/b&gt;'/>
<mappin name='Alleosse' address='13, rue Poncelet' type='food' note='The Finest Fromage in Paris' stop='Metro??' lat='48.878960' lon=' 2.296654' pincolor='778899' pintext='&lt;b&gt;Alleosse&lt;/b&gt;&lt;br /&gt;&lt;br /&gt;13, rue Poncelet&lt;br /&gt;C&amp;Z'/>
<mappin name='Allicante' address='26, boulevard Beaumarchais' type='food' webpage='www.allicante.com' note='Oil' stop='Metro??' lat='48.8556951' lon='2.3689421' pincolor='778899' pintext='&lt;b&gt;Allicante&lt;/b&gt;&lt;br /&gt;&lt;br /&gt;26, boulevard Beaumarchais&lt;br /&gt;GSoP'/>
<mappin name='Les Allobroges' address='71, rue des Grandes-Champs' type='restaurant' stop='Metro??' lat='48.851361' lon=' 2.405348' pincolor='6495ED' pintext='&lt;b&gt;Les Allobroges&lt;/b&gt;&lt;br /&gt;&lt;br /&gt;71, rue des Grandes-Champs&lt;br /&gt;Markets of Paris'/>
<mappin name='Alter Mundi Mode' address='9, rue de Rivoli' type='shop' note='Guilt-Free Paris Fashion' stop='Metro??' lat='48.8557' lon=' 2.3587073' pincolor='8080' pintext='&lt;b&gt;Alter Mundi Mode&lt;/b&gt;&lt;br /&gt;&lt;br /&gt;9, rue de Rivoli&lt;br /&gt;Gridskipper'/>
<mappin name='L&#39;Ambassade d&#39;Auvergne' address='22, rue du Grenier Saint-Lazare' type='bistro' note='Get Melty in Paris' stop='Metro??' lat='48.862987' lon=' 2.353392' pincolor='6495ED' pintext='&lt;b&gt;L&#39;Ambassade d&#39;Auvergne&lt;/b&gt;&lt;br /&gt;&lt;br /&gt;22, rue du Grenier Saint-Lazare&lt;br /&gt;Gridskipper'/>
<mappin name='L&#39;Ambassade d&#39;Auvergine' address='22, rue Grenier-Saint-Lazare' type='restaurant' webpage='http://www.ambassade-auvergne.com' note='$$ Daily Lun-Din ' stop='Rambuteau, Etienne Marcel' lat='48.863148' lon='2.353379' pincolor='6495ED' pintext='&lt;b&gt;L&#39;Ambassade d&#39;Auvergine&lt;/b&gt;&lt;br /&gt;&lt;br /&gt;22, rue Grenier-Saint-Lazare&lt;br /&gt;HungryForParis'/>
<mappin name='Les Ambassades' address='16, rue Copernic' type='bistro' stop='Boissere' lat='48.868933' lon='2.291383' pincolor='6495ED' pintext='&lt;b&gt;Les Ambassades&lt;/b&gt;&lt;br /&gt;&lt;br /&gt;16, rue Copernic&lt;br /&gt;C&amp;Z/Gridskipper'/>
<mappin name='Les Ambassadeurs' address='10, place de la Concorde' type='bistro' webpage='http://www.crillon.com' note='$$$$ Tue-Sat Lun-Din Mon Din Gastro' stop='Concorde' lat='48.866812' lon=' 2.321198' pincolor='6495ED' pintext='&lt;b&gt;Les Ambassadeurs&lt;/b&gt;&lt;br /&gt;&lt;br /&gt;10, place de la Concorde&lt;br /&gt;C&amp;Z Eats / HungryForParis'/>
<mappin name='L&#39;Ambroisie' address='9, place des Vosges' type='restaurant' webpage='http://www.ambroisie-placedesvosges.com/' note='Paris&#39; 3-Star Michelin Restaurants' stop='1-Saint-Paul' lat='48.8555415' lon='2.3645931' pincolor='6495ED' pintext='&lt;b&gt;L&#39;Ambroisie&lt;/b&gt;&lt;br /&gt;&lt;br /&gt;9, place des Vosges&lt;br /&gt;ParisByMouth'/>
<mappin name='American Church in Paris' address='65, quai d&#39;Orsay' type='church' stop='Metro??' lat='48.8622574' lon=' 2.3069120' pincolor='8B0000' pintext='&lt;b&gt;American Church in Paris&lt;/b&gt;&lt;br /&gt;&lt;br /&gt;65, quai d&#39;Orsay'/>
<mappin name='American Hospital' address='63, boulevard Victor Hugo' type='shop' note='Paris for the Accident-Prone Tourist' stop='Metro??' lat='48.9091779' lon=' 2.3296122' pincolor='8080' pintext='&lt;b&gt;American Hospital&lt;/b&gt;&lt;br /&gt;&lt;br /&gt;63, boulevard Victor Hugo&lt;br /&gt;Gridskipper'/>
<mappin name='L&#39;Ami Jean' address='27, rue Malar' type='restaurant' note='$$ Tue-Sat Lun-Din  Basque/Gastro Bistro' stop='Invalides' lat='48.860230' lon=' 2.305902' pincolor='6495ED' pintext='&lt;b&gt;L&#39;Ami Jean&lt;/b&gt;&lt;br /&gt;&lt;br /&gt;27, rue Malar&lt;br /&gt;C&amp;Z / HungryForParis'/>
<mappin name='Amici Miei' address='44, rue Saint-Sabin' type='dessert' note='The Best Pie Holes in Paris' stop='Metro??' lat='48.8581919' lon=' 2.3693519' pincolor='E6E6FA' pintext='&lt;b&gt;Amici Miei&lt;/b&gt;&lt;br /&gt;&lt;br /&gt;44, rue Saint-Sabin&lt;br /&gt;Gridskipper'/>
<mappin name='Amorino' address='2, avenue de Villiers' type='icecream' webpage='http://www.amorino.com' note='Gelato' stop='Metro??' lat='48.881613' lon='2.316251' pincolor='FF1493' pintext='&lt;b&gt;Amorino&lt;/b&gt;&lt;br /&gt;&lt;br /&gt;2, avenue de Villiers&lt;br /&gt;PatisseriesOfParis'/>
<mappin name='Amorino' address='35, boulevard Haussmann' type='icecream' webpage='http://www.amorino.com' note='Gelato' stop='Havre-Caumartin' lat='48.873452' lon='2.329617' pincolor='FF1493' pintext='&lt;b&gt;Amorino&lt;/b&gt;&lt;br /&gt;&lt;br /&gt;35, boulevard Haussmann&lt;br /&gt;PatisseriesOfParis'/>
<mappin name='Amorino' address='40, boulevard Haussmann' type='icecream' webpage='http://www.amorino.com' note='Gelato' stop='Metro??' lat='48.873441' lon='2.332132' pincolor='FF1493' pintext='&lt;b&gt;Amorino&lt;/b&gt;&lt;br /&gt;&lt;br /&gt;40, boulevard Haussmann&lt;br /&gt;PatisseriesOfParis'/>
<mappin name='Amorino' address='place de la Concorde' type='icecream' webpage='http://www.amorino.com' note='Gelato' stop='Metro??' lat='48.865338' lon='2.321468' pincolor='FF1493' pintext='&lt;b&gt;Amorino&lt;/b&gt;&lt;br /&gt;&lt;br /&gt;place de la Concorde&lt;br /&gt;PatisseriesOfParis'/>
<mappin name='Amorino' address='42, rue Cler' type='icecream' webpage='http://www.amorino.com' note='Gelato' stop='Metro??' lat='48.856353' lon='2.306495' pincolor='FF1493' pintext='&lt;b&gt;Amorino&lt;/b&gt;&lt;br /&gt;&lt;br /&gt;42, rue Cler&lt;br /&gt;PatisseriesOfParis'/>
<mappin name='Amorino' address='17, rue Daguerre' type='icecream' webpage='http://www.amorino.com' note='Gelato' stop='Denfert-Rochereau' lat='48.833826' lon='2.329965' pincolor='FF1493' pintext='&lt;b&gt;Amorino&lt;/b&gt;&lt;br /&gt;&lt;br /&gt;17, rue Daguerre&lt;br /&gt;PatisseriesOfParis'/>
<mappin name='Amorino' address='4, rue de Buci' type='icecream' webpage='http://www.amorino.com' note='Gelato' stop='Metro??' lat='48.853822' lon='2.337968' pincolor='FF1493' pintext='&lt;b&gt;Amorino&lt;/b&gt;&lt;br /&gt;&lt;br /&gt;4, rue de Buci&lt;br /&gt;PatisseriesOfParis'/>
<mappin name='Amorino' address='2, rue de la Gaite' type='icecream' webpage='http://www.amorino.com' note='Gelato' stop='Metro??' lat='48.841115' lon='2.324721' pincolor='FF1493' pintext='&lt;b&gt;Amorino&lt;/b&gt;&lt;br /&gt;&lt;br /&gt;2, rue de la Gaite&lt;br /&gt;PatisseriesOfParis'/>
<mappin name='Amorino' address='16, rue de la Huchette' type='icecream' webpage='http://www.amorino.com' note='Gelato' stop='Metro??' lat='48.852987' lon='2.345825' pincolor='FF1493' pintext='&lt;b&gt;Amorino&lt;/b&gt;&lt;br /&gt;&lt;br /&gt;16, rue de la Huchette&lt;br /&gt;PatisseriesOfParis'/>
<mappin name='Amorino' address='4, rue de la Roquette' type='icecream' webpage='http://www.amorino.com' note='Gelato' stop='Metro??' lat='48.853296' lon='2.370552' pincolor='FF1493' pintext='&lt;b&gt;Amorino&lt;/b&gt;&lt;br /&gt;&lt;br /&gt;4, rue de la Roquette&lt;br /&gt;PatisseriesOfParis'/>
<mappin name='Amorino' address='55, rue de la Verrerie' type='icecream' webpage='http://www.amorino.com' note='Gelato' stop='Metro??' lat='48.857838' lon='2.353195' pincolor='FF1493' pintext='&lt;b&gt;Amorino&lt;/b&gt;&lt;br /&gt;&lt;br /&gt;55, rue de la Verrerie&lt;br /&gt;PatisseriesOfParis'/>
<mappin name='Amorino' address='99, rue de Provence (Angle rue de Charras)' type='icecream' webpage='http://www.amorino.com' note='Gelato' stop='Metro??' lat='48.874188' lon='2.330066' pincolor='FF1493' pintext='&lt;b&gt;Amorino&lt;/b&gt;&lt;br /&gt;&lt;br /&gt;99, rue de Provence (Angle rue de Charras)&lt;br /&gt;PatisseriesOfParis'/>
<mappin name='Amorino' address='39, rue des Abbesses' type='icecream' webpage='http://www.amorino.com' note='Gelato' stop='Metro??' lat='48.885126' lon='2.336708' pincolor='FF1493' pintext='&lt;b&gt;Amorino&lt;/b&gt;&lt;br /&gt;&lt;br /&gt;39, rue des Abbesses&lt;br /&gt;PatisseriesOfParis'/>
<mappin name='Amorino' address='1, rue des Francs Bourgeois' type='icecream' webpage='http://www.amorino.com' note='Gelato' stop='Metro??' lat='48.856455' lon='2.364293' pincolor='FF1493' pintext='&lt;b&gt;Amorino&lt;/b&gt;&lt;br /&gt;&lt;br /&gt;1, rue des Francs Bourgeois&lt;br /&gt;PatisseriesOfParis'/>
<mappin name='Amorino' address='90, rue du Commerce' type='icecream' webpage='http://www.amorino.com' note='Gelato' stop='Metro??' lat='48.84407' lon='2.293188' pincolor='FF1493' pintext='&lt;b&gt;Amorino&lt;/b&gt;&lt;br /&gt;&lt;br /&gt;90, rue du Commerce&lt;br /&gt;PatisseriesOfParis'/>
<mappin name='Amorino' address='6, rue du Faubourg Montmartre' type='icecream' webpage='http://www.amorino.com' note='Gelato' stop='Metro??' lat='48.872014' lon='2.343311' pincolor='FF1493' pintext='&lt;b&gt;Amorino&lt;/b&gt;&lt;br /&gt;&lt;br /&gt;6, rue du Faubourg Montmartre&lt;br /&gt;PatisseriesOfParis'/>
<mappin name='Amorino' address='6, rue Guisarde' type='icecream' webpage='http://www.amorino.com' note='Gelato' stop='Metro??' lat='48.851972' lon='2.335011' pincolor='FF1493' pintext='&lt;b&gt;Amorino&lt;/b&gt;&lt;br /&gt;&lt;br /&gt;6, rue Guisarde&lt;br /&gt;PatisseriesOfParis'/>
<mappin name='Amorino' address='18, rue Mouffetard' type='icecream' webpage='http://www.amorino.com' note='Gelato' stop='Metro??' lat='48.844348' lon='2.349271' pincolor='FF1493' pintext='&lt;b&gt;Amorino&lt;/b&gt;&lt;br /&gt;&lt;br /&gt;18, rue Mouffetard&lt;br /&gt;PatisseriesOfParis'/>
<mappin name='Amorino' address='47, rue Saint Louis en l&#39;&#238;le' type='icecream' webpage='http://www.amorino.com' note='Gelato' stop='Pont Marie' lat='48.852051' lon='2.355779' pincolor='FF1493' pintext='&lt;b&gt;Amorino&lt;/b&gt;&lt;br /&gt;&lt;br /&gt;47, rue Saint Louis en l&#39;&#238;le&lt;br /&gt;PatisseriesOfParis'/>
<mappin name='Amorino' address='119/121, rue Saint Martin' type='icecream' webpage='http://www.amorino.com' note='Gelato' stop='Metro??' lat='48.860695' lon='2.351129' pincolor='FF1493' pintext='&lt;b&gt;Amorino&lt;/b&gt;&lt;br /&gt;&lt;br /&gt;119/121, rue Saint Martin&lt;br /&gt;PatisseriesOfParis'/>
<mappin name='Amorino' address='22, rue Soufflot' type='icecream' webpage='http://www.amorino.com' note='Gelato' stop='Metro??' lat='48.847275' lon='2.341755' pincolor='FF1493' pintext='&lt;b&gt;Amorino&lt;/b&gt;&lt;br /&gt;&lt;br /&gt;22, rue Soufflot&lt;br /&gt;PatisseriesOfParis'/>
<mappin name='Amorino' address='4, rue Vavin' type='icecream' webpage='http://www.amorino.com' note='Gelato' stop='Vavin, Notre-Dame-des-Champs' lat='48.844778' lon='2.332075' pincolor='FF1493' pintext='&lt;b&gt;Amorino&lt;/b&gt;&lt;br /&gt;&lt;br /&gt;4, rue Vavin&lt;br /&gt;PatisseriesOfParis'/>
<mappin name='Amorino' address='31, rue Vieille du Temple' type='icecream' webpage='http://www.amorino.com' note='Gelato' stop='Hotel de Ville' lat='48.8575673' lon=' 2.3575796' pincolor='FF1493' pintext='&lt;b&gt;Amorino&lt;/b&gt;&lt;br /&gt;&lt;br /&gt;31, rue Vieille du Temple&lt;br /&gt;PatisseriesOfParis'/>
<mappin name='An Li' address='46, rue Richer' type='restaurant' note='Chinese Restaurants in Paris' stop='Metro??' lat='48.8740764' lon=' 2.3436882' pincolor='6495ED' pintext='&lt;b&gt;An Li&lt;/b&gt;&lt;br /&gt;&lt;br /&gt;46, rue Richer&lt;br /&gt;Gridskipper'/>
<mappin name='Anahuacalli' address='30, rue des Bernardins' type='restaurant' webpage='http://www.r-m-g.fr/fr/restaurant-gastronomique-mexicain-anahuacalli-notre-dame-paris-5.php' stop='10-Maubert-Mutualité' lat='48.8497985' lon='2.350436' pincolor='6495ED' pintext='&lt;b&gt;Anahuacalli&lt;/b&gt;&lt;br /&gt;&lt;br /&gt;30, rue des Bernardins&lt;br /&gt;ParisByMouth'/>
<mappin name='Andrea Crews' address='25, rue de Vaucouleurs' type='shop' webpage='http://andreacrews.com/' note='Vintage Clothes' stop='Metro??' lat='48.870294' lon=' 2.376844' pincolor='8080' pintext='&lt;b&gt;Andrea Crews&lt;/b&gt;&lt;br /&gt;&lt;br /&gt;25, rue de Vaucouleurs&lt;br /&gt;NYT'/>
<mappin name='Androuet' address='51, rue de Verneuil' type='boulangerie' stop='Metro??' lat='48.8585261' lon='2.3267682' pincolor='E6E6FA' pintext='&lt;b&gt;Androuet&lt;/b&gt;&lt;br /&gt;&lt;br /&gt;51, rue de Verneuil&lt;br /&gt;GSoP'/>
<mappin name='L&#39;Angle du Faubourg' address='195, rue du Faubourg-Saint-Honore' type='restaurant' note='$$$ Mon-Fri Lun-Din ' stop='Charles-de-Gaulle-Etoie, Georges V, Ternes' lat='48.875773' lon='2.302842' pincolor='6495ED' pintext='&lt;b&gt;L&#39;Angle du Faubourg&lt;/b&gt;&lt;br /&gt;&lt;br /&gt;195, rue du Faubourg-Saint-Honore&lt;br /&gt;HungryForParis'/>
<mappin name='Angelina tearoom' address='226, rue de Rivoli' type='cafe' note='Breakfast, Thick Hot Chocolate, Ice Cream' stop='Metro??' lat='48.865008' lon='2.328403' pincolor='6495ED' pintext='&lt;b&gt;Angelina tearoom&lt;/b&gt;&lt;br /&gt;&lt;br /&gt;226, rue de Rivoli&lt;br /&gt;GSoP, PatisseriesOfParis'/>
<mappin name='Anthony Peto' address='56 rue Tiquetonne' type='shop' note='Chatelet , Les Halles' stop='4-Les Halles 4-etienne Marcel' lat='48.864459' lon=' 2.345221' pincolor='8080' pintext='&lt;b&gt;Anthony Peto&lt;/b&gt;&lt;br /&gt;&lt;br /&gt;56 rue Tiquetonne'/>
<mappin name='Antica Market' address='99, rue des Rosiers' type='market' webpage='http://www.marcheauxpuces-saintouen.com/4.aspx?sr=1' stop='Metro??' lat='48.902301' lon=' 2.342590' pincolor='FFF8DC' pintext='&lt;b&gt;Antica Market&lt;/b&gt;&lt;br /&gt;&lt;br /&gt;99, rue des Rosiers'/>
<mappin name='Antoine et Lili' address='90, rue des Martyrs' type='shop' note='Shopping Rue des Martyrs' stop='Metro??' lat='48.8836956' lon=' 2.3397476' pincolor='8080' pintext='&lt;b&gt;Antoine et Lili&lt;/b&gt;&lt;br /&gt;&lt;br /&gt;90, rue des Martyrs&lt;br /&gt;Gridskipper'/>
<mappin name='L&#39;AOC' address='184, rue des Fosses-Saint-Bernard' type='restaurant' webpage='http://www.restoaoc.com' note='$$ Tue-Sat Lun-Din ' stop='Cardinale Limoine, Jessieu' lat='48.848807' lon='2.355127' pincolor='6495ED' pintext='&lt;b&gt;L&#39;AOC&lt;/b&gt;&lt;br /&gt;&lt;br /&gt;184, rue des Fosses-Saint-Bernard&lt;br /&gt;HungryForParis'/>
<mappin name='Apicius' address='20, rue d&#39;Artois' type='restaurant' webpage='http://www.restaurant-apicius.com/' stop='9-Saint Philippe du Roule' lat='48.8731976' lon='2.3073776' pincolor='6495ED' pintext='&lt;b&gt;Apicius&lt;/b&gt;&lt;br /&gt;&lt;br /&gt;20, rue d&#39;Artois&lt;br /&gt;ParisByMouth'/>
<mappin name='Apostrophe' address='3, rue de Chevreuse' type='hotel' stop='Metro??' lat='48.8418113' lon='2.3317823' pincolor='DCDCDC' pintext='&lt;b&gt;Apostrophe&lt;/b&gt;&lt;br /&gt;&lt;br /&gt;3, rue de Chevreuse&lt;br /&gt;BBC'/>
<mappin name='Aquarium du Trocadero' address='avenue Albert de Mun' type='park' note='Wildlife' stop='Metro??' lat='48.8629774' lon=' 2.2918253' pincolor='32CD32' pintext='&lt;b&gt;Aquarium du Trocadero&lt;/b&gt;&lt;br /&gt;&lt;br /&gt;avenue Albert de Mun&lt;br /&gt;Gridskipper'/>
<mappin name='L&#39;Arbre de Sel' address='138, rue de Vaugirard' type='restaurant' note='Korean' stop='Metro??' lat='48.844675' lon=' 2.318709' pincolor='6495ED' pintext='&lt;b&gt;L&#39;Arbre de Sel&lt;/b&gt;&lt;br /&gt;&lt;br /&gt;138, rue de Vaugirard&lt;br /&gt;C&amp;Z'/>
<mappin name='Arc de Triomphe' address='' type='landmark' stop='Metro??' lat='48.873763' lon=' 2.294990' pincolor='696969' pintext='&lt;b&gt;Arc de Triomphe&lt;/b&gt;&lt;br /&gt;Fodors Readers'/>
<mappin name='Arc de Triomphe de l&#39;Etoile' address='place Charles de Gaulle' type='landmark' note='The Grand Arches of Paris' stop='Metro??' lat='48.8743437' lon=' 2.2948202' pincolor='696969' pintext='&lt;b&gt;Arc de Triomphe de l&#39;Etoile&lt;/b&gt;&lt;br /&gt;&lt;br /&gt;place Charles de Gaulle&lt;br /&gt;Gridskipper'/>
<mappin name='Arc de Triomphe du Carrousel' address='place du Carrousel' type='landmark' note='The Grand Arches of Paris' stop='Metro??' lat='48.861757' lon=' 2.332916' pincolor='696969' pintext='&lt;b&gt;Arc de Triomphe du Carrousel&lt;/b&gt;&lt;br /&gt;&lt;br /&gt;place du Carrousel&lt;br /&gt;Gridskipper'/>
<mappin name='Arcade des Champs-Elysees (Arcade du Lido)' address='76-78, avenue des Champs-elysees and 59, rue de Ponthieu' type='passage' stop='Metro??' lat='48.871227' lon=' 2.304001' pincolor='FFA500' pintext='&lt;b&gt;Arcade des Champs-Elysees (Arcade du Lido)&lt;/b&gt;&lt;br /&gt;&lt;br /&gt;76-78, avenue des Champs-elysees and 59, rue de Ponthieu'/>
<mappin name='Les Ar&#232;nes de Lut&#232;ce' address='47, rue Monge' type='landmark' webpage='http://www.parisinfo.com/sites-culturels/4/arenes-de-lutece?1' note='Old Roman Arena' stop='10-Cardinal Lemoine' lat='48.84515' lon=' 2.35227' pincolor='696969' pintext='&lt;b&gt;Les Ar&#232;nes de Lut&#232;ce&lt;/b&gt;&lt;br /&gt;&lt;br /&gt;47, rue Monge'/>
<mappin name='Argentinian Unico' address='15, rue Paul Bert' type='restaurant' stop='Metro??' lat='48.8520149' lon=' 2.3847066' pincolor='6495ED' pintext='&lt;b&gt;Argentinian Unico&lt;/b&gt;&lt;br /&gt;&lt;br /&gt;15, rue Paul Bert&lt;br /&gt;Fodors'/>
<mappin name='Arnaud Delmontel' address='57, rue Damremont' type='patisserie' webpage='http://www.arnaud-delmontel.com/index.en.php' note='Baguettes' stop='Metro??' lat='48.89114' lon=' 2.33464' pincolor='E6E6FA' pintext='&lt;b&gt;Arnaud Delmontel&lt;/b&gt;&lt;br /&gt;&lt;br /&gt;57, rue Damremont&lt;br /&gt;PatisseriesOfParis,T&amp;L'/>
<mappin name='Arnaud Delmontel' address='39, rue des Martyrs' type='patisserie' note='The Best Galettes des Rois in Paris' stop='Metro??' lat='48.879451' lon=' 2.339968' pincolor='E6E6FA' pintext='&lt;b&gt;Arnaud Delmontel&lt;/b&gt;&lt;br /&gt;&lt;br /&gt;39, rue des Martyrs&lt;br /&gt;PatisseriesOfParis,C&amp;Z'/>
<mappin name='Arnaud Larher' address='53, rue Caulaincourt' type='chocolate' webpage='http://www.arnaud-larher.com' note='Pastry' stop='Metro??' lat='48.889365' lon=' 2.334809' pincolor='D2691E' pintext='&lt;b&gt;Arnaud Larher&lt;/b&gt;&lt;br /&gt;&lt;br /&gt;53, rue Caulaincourt&lt;br /&gt;PatisseriesOfParis'/>
<mappin name='L&#39;Ar&#244;me' address='3, rue Saint-Philippe du Roule' type='restaurant' note='Paris Bistronomy' stop='Metro??' lat='48.8731223' lon='2.3088871' pincolor='6495ED' pintext='&lt;b&gt;L&#39;Ar&#244;me&lt;/b&gt;&lt;br /&gt;&lt;br /&gt;3, rue Saint-Philippe du Roule&lt;br /&gt;Gridskipper'/>
<mappin name='L&#39;Arp&#232;ge ' address='84, rue de Varenne' type='restaurant' webpage='http://www.alain-passard.com/' note='$$$$ Mon-Fri Lun-Din Sat-Din Paris&#39; 3-Star Michelin Restaurants' stop='13-Varenne' lat='48.8557617' lon='2.3170925' pincolor='6495ED' pintext='&lt;b&gt;L&#39;Arp&#232;ge &lt;/b&gt;&lt;br /&gt;&lt;br /&gt;84, rue de Varenne&lt;br /&gt;ParisByMouth,HungryForParis'/>
<mappin name='Artazart' address='83, quai de Valmy' type='bookstore' stop='Metro??' lat='48.8728927' lon=' 2.3637274' pincolor='00FFFF' pintext='&lt;b&gt;Artazart&lt;/b&gt;&lt;br /&gt;&lt;br /&gt;83, quai de Valmy&lt;br /&gt;NYT'/>
<mappin name='Artcurial' address='7, rond-pont des Champs-&#233;lys&#233;es (H&#244;tel Marcel Dassault)' type='auction' webpage='cafe-artcurial.abcsalles.com' note='Lunch for two, about 48 euros.' stop='Metro??' lat='48.8584770' lon=' 2.3551330' pincolor='32CD32' pintext='&lt;b&gt;Artcurial&lt;/b&gt;&lt;br /&gt;&lt;br /&gt;7, rond-pont des Champs-&#233;lys&#233;es (H&#244;tel Marcel Dassault)&lt;br /&gt;NYT'/>
<mappin name='L&#39;Artisan des Saveurs' address='72, rue du Cherche-Midi' type='cafe' note='Salon de the' stop='Metro??' lat='48.848149' lon=' 2.323773' pincolor='6495ED' pintext='&lt;b&gt;L&#39;Artisan des Saveurs&lt;/b&gt;&lt;br /&gt;&lt;br /&gt;72, rue du Cherche-Midi&lt;br /&gt;PatisseriesOfParis,C&amp;Z'/>
<mappin name='Les Arts Decoratifs, Le Saut Loup' address='107, rue de Rivoli' type='shop' webpage='lesautduloup.com.' stop='Palais Royal' lat='48.8630910' lon=' 2.3333070' pincolor='8080' pintext='&lt;b&gt;Les Arts Decoratifs, Le Saut Loup&lt;/b&gt;&lt;br /&gt;&lt;br /&gt;107, rue de Rivoli&lt;br /&gt;Fodors'/>
<mappin name='Arts et Metier' address='' type='xxxx' note='metro stop' stop='3-Arts et Metiers 11-Arts et Metiers' lat='48.86558' lon=' 2.35604' pincolor='FF69B4' pintext='&lt;b&gt;Arts et Metier&lt;/b&gt;'/>
<mappin name='Arts et Metiers Metro Station' address='Rue Reaumur,, France' type='tosee' note='Most Beautiful Metro Stations' stop='3,11-Arts et Metiers' lat='48.86551' lon=' 2.35611' pincolor='FB7EFD' pintext='&lt;b&gt;Arts et Metiers Metro Station&lt;/b&gt;&lt;br /&gt;&lt;br /&gt;Rue Reaumur,, France&lt;br /&gt;BBC'/>
<mappin name='L&#39;As du Falafel' address='34, rue des Rosiers' type='restaurant' note='$ Mon-Fri, Sun Lun-Din' stop='St. Paul or St. Sébastian Froissart' lat='48.8574054' lon='2.3590672' pincolor='6495ED' pintext='&lt;b&gt;L&#39;As du Falafel&lt;/b&gt;&lt;br /&gt;&lt;br /&gt;34, rue des Rosiers&lt;br /&gt;ParisByMouth,HungryForParis'/>
<mappin name='L&#39;Assiette' address='181, rue du Ch&#226;teau' type='restaurant' stop='4-Mouton Duvernet' lat='48.833381' lon='2.323947' pincolor='6495ED' pintext='&lt;b&gt;L&#39;Assiette&lt;/b&gt;&lt;br /&gt;&lt;br /&gt;181, rue du Ch&#226;teau&lt;br /&gt;ParisByMouth'/>
<mappin name='Astier' address='44, rue Jean-Pierre Timbaud' type='restaurant' webpage='http://www.restaurant-astier.com/' note='$$ Daily Lun-Din Casual' stop='3-Parmentier' lat='48.8661406' lon='2.3720156' pincolor='6495ED' pintext='&lt;b&gt;Astier&lt;/b&gt;&lt;br /&gt;&lt;br /&gt;44, rue Jean-Pierre Timbaud&lt;br /&gt;ParisByMouth,C&amp;Z Eats / HungryForParis'/>
<mappin name='L&#39;Astrance' address='4, rue Beethoven' type='restaurant' stop='6-Passy' lat='48.8583784' lon='2.2875713' pincolor='6495ED' pintext='&lt;b&gt;L&#39;Astrance&lt;/b&gt;&lt;br /&gt;&lt;br /&gt;4, rue Beethoven&lt;br /&gt;ParisByMouth,HungryForParis'/>
<mappin name='Atao' address='86, rue Lemercier' type='restaurant' stop='13-Brochant' lat='48.888831' lon='2.3200562' pincolor='6495ED' pintext='&lt;b&gt;Atao&lt;/b&gt;&lt;br /&gt;&lt;br /&gt;86, rue Lemercier&lt;br /&gt;ParisByMouth'/>
<mappin name='L&#39;Atelier Berger' address='49, rue Berger' type='restaurant' note='Paris Smorgasbords' stop='Metro??' lat='48.8621857' lon=' 2.3421083' pincolor='6495ED' pintext='&lt;b&gt;L&#39;Atelier Berger&lt;/b&gt;&lt;br /&gt;&lt;br /&gt;49, rue Berger&lt;br /&gt;Gridskipper'/>
<mappin name='L&#39;Atelier Boulanger du Marais' address='32, rue Turenne' type='xxxx' stop='Metro??' lat='48.857153' lon=' 2.364517' pincolor='FF69B4' pintext='&lt;b&gt;L&#39;Atelier Boulanger du Marais&lt;/b&gt;&lt;br /&gt;&lt;br /&gt;32, rue Turenne'/>
<mappin name='L&#39;Atelier de Jo&#235;l Robuchon' address='5, rue Montalembert' type='restaurant' webpage='http://www.joel-robuchon.com/fr/' note='$$$$ Daily Lun-Din ' stop='12-rue du Bac' lat='48.8566745' lon='2.3279058' pincolor='6495ED' pintext='&lt;b&gt;L&#39;Atelier de Jo&#235;l Robuchon&lt;/b&gt;&lt;br /&gt;&lt;br /&gt;5, rue Montalembert&lt;br /&gt;ParisByMouth,HungryForParis'/>
<mappin name='Atelier de l&#39;eclair' address='16, rue Bachaumont' type='pastry' stop='3-Sentier' lat='48.86620' lon=' 2.34527' pincolor='E6E6FA' pintext='&lt;b&gt;Atelier de l&#39;eclair&lt;/b&gt;&lt;br /&gt;&lt;br /&gt;16, rue Bachaumont&lt;br /&gt;BBC'/>
<mappin name='Atelier du Cuivre et de l&#39;Argent' address='113, avenue Daumesnil' type='xxxx' webpage='Ultra-modern cutlery share space in this shop that specializes in copper cookware made in their atelier, outside of Paris. Located just under the viaduct, by the Gare de Lyon, they also re-tin copper as well.' stop='Metro??' lat='48.8449994' lon=' 2.3805367' pincolor='FF69B4' pintext='&lt;b&gt;Atelier du Cuivre et de l&#39;Argent&lt;/b&gt;&lt;br /&gt;&lt;br /&gt;113, avenue Daumesnil'/>
<mappin name='L&#39;Atelier &#201;toile de Jo&#235;l Robuchon' address='133, avenue des Champs Elys&#233;es (in the Publicis complex)' type='restaurant' webpage='http://www.joel-robuchon.com/fr/' note='Discovery menu for two: 300 euros. ' stop='1, 2, 6, RER A-Etoile' lat='48.872545' lon=' 2.297573' pincolor='6495ED' pintext='&lt;b&gt;L&#39;Atelier &#201;toile de Jo&#235;l Robuchon&lt;/b&gt;&lt;br /&gt;&lt;br /&gt;133, avenue des Champs Elys&#233;es (in the Publicis complex)&lt;br /&gt;ParisByMouth'/>
<mappin name='L&#39;Atelier Vivanda' address='18, rue Lauriston' type='restaurant' webpage='http://www.ateliervivanda.com/' stop='1, 2, 6-Charles-de-Gaulle-Etoile' lat='48.8716799' lon='2.2920163' pincolor='6495ED' pintext='&lt;b&gt;L&#39;Atelier Vivanda&lt;/b&gt;&lt;br /&gt;&lt;br /&gt;18, rue Lauriston&lt;br /&gt;ParisByMouth'/>
<mappin name='Ateliers des Chefs' address='10, rue de Penthi&#232;vre' type='shop' webpage='http://www.atelierdeschefs.com' note='Cooking Classes' stop='Metro??' lat='48.873057' lon='2.316696' pincolor='8080' pintext='&lt;b&gt;Ateliers des Chefs&lt;/b&gt;&lt;br /&gt;&lt;br /&gt;10, rue de Penthi&#232;vre'/>
<mappin name='Auberge de Jarente' address='7, rue de Jarente' type='restaurant' note='Best Basque Bistros in Paris' stop='Metro??' lat='48.8556307' lon=' 2.3628518' pincolor='6495ED' pintext='&lt;b&gt;Auberge de Jarente&lt;/b&gt;&lt;br /&gt;&lt;br /&gt;7, rue de Jarente&lt;br /&gt;Gridskipper'/>
<mappin name='L&#39;Auberge du Roi Gradlon' address='36, boulevard Arago' type='restaurant' webpage='http://roigradlon.fr/' stop='7-Les Gobelins' lat='48.8350315' lon='2.346189' pincolor='6495ED' pintext='&lt;b&gt;L&#39;Auberge du Roi Gradlon&lt;/b&gt;&lt;br /&gt;&lt;br /&gt;36, boulevard Arago&lt;br /&gt;ParisByMouth'/>
<mappin name='L&#39;Auberge du XV' address='15, rue de la Sant&#233;' type='restaurant' webpage='http://www.laubergedu15.com/galerie.html' stop='RER B-Port Royal|Saint Jacques-17' lat='48.837078' lon='2.3419282' pincolor='6495ED' pintext='&lt;b&gt;L&#39;Auberge du XV&lt;/b&gt;&lt;br /&gt;&lt;br /&gt;15, rue de la Sant&#233;&lt;br /&gt;ParisByMouth'/>
<mappin name='Auberge Etchegorry' address='41, rue de Croulebarbe' type='restaurant' note='Best Basque Bistros in Paris' stop='Metro??' lat='48.8322703' lon=' 2.3505434' pincolor='6495ED' pintext='&lt;b&gt;Auberge Etchegorry&lt;/b&gt;&lt;br /&gt;&lt;br /&gt;41, rue de Croulebarbe&lt;br /&gt;Gridskipper'/>
<mappin name='L&#39;Auberge Flora' address='44, boulevard Richard Lenoir' type='restaurant' webpage='http://www.aubergeflora.fr/' stop='5-Breguet Sabin' lat='48.8582294' lon='2.3719139' pincolor='6495ED' pintext='&lt;b&gt;L&#39;Auberge Flora&lt;/b&gt;&lt;br /&gt;&lt;br /&gt;44, boulevard Richard Lenoir&lt;br /&gt;ParisByMouth'/>
<mappin name='Auberge Pyrenees-Cevennes' address='106, rue de la Folie-Mericourt' type='restaurant' note='$$ Mon-Fri Lun-Din ' stop='Republique' lat='48.867834' lon='2.368728' pincolor='6495ED' pintext='&lt;b&gt;Auberge Pyrenees-Cevennes&lt;/b&gt;&lt;br /&gt;&lt;br /&gt;106, rue de la Folie-Mericourt&lt;br /&gt;HungryForParis'/>
<mappin name='Au-Dela des Frontieres' address='106, rue Amelot' type='shop' stop='Metro??' lat='48.862802' lon=' 2.367368' pincolor='8080' pintext='&lt;b&gt;Au-Dela des Frontieres&lt;/b&gt;&lt;br /&gt;&lt;br /&gt;106, rue Amelot'/>
<mappin name='Auguste' address='54, rue de Bourgogne' type='restaurant' webpage='http://www.restaurantauguste.fr/#/ACCUEIL' note='$$$ Mon-Fri Lun-Din ' stop='13-Varenne' lat='48.8563479' lon='2.3165739' pincolor='6495ED' pintext='&lt;b&gt;Auguste&lt;/b&gt;&lt;br /&gt;&lt;br /&gt;54, rue de Bourgogne&lt;br /&gt;ParisByMouth,HungryForParis'/>
<mappin name='Aurore Capucine' address='3, rue de Rochechouart' type='chocolate' note='Pastry shop' stop='Metro??' lat='48.876707' lon=' 2.344388' pincolor='D2691E' pintext='&lt;b&gt;Aurore Capucine&lt;/b&gt;&lt;br /&gt;&lt;br /&gt;3, rue de Rochechouart&lt;br /&gt;PatisseriesOfParis,C&amp;Z'/>
<mappin name='Auteuil Antiques Village' address='13, rue Theophile Gautier' type='flea' note='Tuesday to Sunday 10 am to 6 pm som shops close noon to 2 pm' stop='Egilise d&#39;Auteuil' lat='48.850652' lon='2.27438' pincolor='FFFACD' pintext='&lt;b&gt;Auteuil Antiques Village&lt;/b&gt;&lt;br /&gt;&lt;br /&gt;13, rue Theophile Gautier'/>
<mappin name='Auteuil-Neuilly-Passy' address='' type='neighborhood' stop='Metro??' lat='48.850577' lon=' 2.267863' pincolor='FFFFF0' pintext='&lt;b&gt;Auteuil-Neuilly-Passy&lt;/b&gt;'/>
<mappin name='Autour du Yangtse' address='201, avenue de Choisy' type='restaurant' note='Chinese Restaurants in Paris' stop='Metro??' lat='48.829874' lon=' 2.356950' pincolor='6495ED' pintext='&lt;b&gt;Autour du Yangtse&lt;/b&gt;&lt;br /&gt;&lt;br /&gt;201, avenue de Choisy&lt;br /&gt;Gridskipper'/>
<mappin name='Autour d&#39;un Verre' address='21, rue de Tr&#233;vise' type='restaurant' note='dinner for two $65.' stop='8, 9-Grands Boulevards|Cadet-9' lat='48.8740299' lon='2.3453125' pincolor='6495ED' pintext='&lt;b&gt;Autour d&#39;un Verre&lt;/b&gt;&lt;br /&gt;&lt;br /&gt;21, rue de Tr&#233;vise&lt;br /&gt;ParisByMouth'/>
<mappin name='L&#39;Autre Boulange' address='43, rue de Montreuil' type='bakery' note='Bakery' stop='Metro??' lat='48.850458' lon=' 2.38797' pincolor='E6E6FA' pintext='&lt;b&gt;L&#39;Autre Boulange&lt;/b&gt;&lt;br /&gt;&lt;br /&gt;43, rue de Montreuil&lt;br /&gt;C&amp;Z'/>
<mappin name='L&#39;Autre Cafe' address='62, rue Jean-Pierre Timbaud' type='cafe' stop='Metro??' lat='48.866776' lon=' 2.374004' pincolor='6495ED' pintext='&lt;b&gt;L&#39;Autre Cafe&lt;/b&gt;&lt;br /&gt;&lt;br /&gt;62, rue Jean-Pierre Timbaud'/>
<mappin name='Aux Pipallottes Gourmandes' address='49, rue Rochechouart' type='food' stop='Metro??' lat='48.879276' lon='2.3450541' pincolor='778899' pintext='&lt;b&gt;Aux Pipallottes Gourmandes&lt;/b&gt;&lt;br /&gt;&lt;br /&gt;49, rue Rochechouart&lt;br /&gt;GSoP'/>
<mappin name='L&#39;Avant Comptoir' address='3, Carrefour de l&#39;Od&#233;on' type='restaurant' webpage='http://www.hotel-paris-relais-saint-germain.com/' note='French Tapis' stop='4,10-Odéon' lat='48.8520358' lon='2.3388124' pincolor='6495ED' pintext='&lt;b&gt;L&#39;Avant Comptoir&lt;/b&gt;&lt;br /&gt;&lt;br /&gt;3, Carrefour de l&#39;Od&#233;on&lt;br /&gt;ParisByMouth'/>
<mappin name='L&#39;Avant Gout' address='26, rue Bobillot' type='restaurant' note='$$ Tue-Fri Lun-Din Sat Din Gastro Bistro' stop='5, 6, 7-Place d’Italie' lat='48.8289758' lon='2.3531374' pincolor='6495ED' pintext='&lt;b&gt;L&#39;Avant Gout&lt;/b&gt;&lt;br /&gt;&lt;br /&gt;26, rue Bobillot&lt;br /&gt;ParisByMouth,HungryForParis'/>
<mappin name='L&#39;Avant-Go&#251;t C&#244;te Cellier' address='37, rue Bobillot' type='food' note='Wine shop' stop='Metro??' lat='48.828852' lon=' 2.35328' pincolor='778899' pintext='&lt;b&gt;L&#39;Avant-Go&#251;t C&#244;te Cellier&lt;/b&gt;&lt;br /&gt;&lt;br /&gt;37, rue Bobillot&lt;br /&gt;C&amp;Z,GSoP'/>
<mappin name='Avenue de Breteuil' address='avenue de Breteuil' type='street' stop='Metro??' lat='48.84957' lon=' 2.31202' pincolor='FFFFF0' pintext='&lt;b&gt;Avenue de Breteuil&lt;/b&gt;&lt;br /&gt;&lt;br /&gt;avenue de Breteuil'/>
<mappin name='Avenue Junot' address='' type='street' note='Montmartre' stop='Metro??' lat='48.888589' lon=' 2.335501' pincolor='FFFFF0' pintext='&lt;b&gt;Avenue Junot&lt;/b&gt;'/>
<mappin name='Avenue Montaigne' address='avenue Montaigne' type='street' note='High End Shopping - Gucci, etc.' stop='Metro??' lat='48.868515' lon='2.309198' pincolor='FFFFF0' pintext='&lt;b&gt;Avenue Montaigne&lt;/b&gt;&lt;br /&gt;&lt;br /&gt;avenue Montaigne'/>
<mappin name='Avenue Victor Hugo' address='avenu Victor Hugo' type='street' note='High End' stop='Metro??' lat='48.867950' lon='2.281280' pincolor='FFFFF0' pintext='&lt;b&gt;Avenue Victor Hugo&lt;/b&gt;&lt;br /&gt;&lt;br /&gt;avenu Victor Hugo'/>
<mappin name='Axuria' address='54, avenue F&#233;lix Faure' type='restaurant' webpage='http://www.axuria-restaurant.fr/' stop='8-Boucicaut' lat='48.8408086' lon='2.2867002' pincolor='6495ED' pintext='&lt;b&gt;Axuria&lt;/b&gt;&lt;br /&gt;&lt;br /&gt;54, avenue F&#233;lix Faure&lt;br /&gt;ParisByMouth'/>
<mappin name='Azabu' address='3, rue Andr&#233; Mazet' type='restaurant' note='Japanese' stop='Metro??' lat='48.854117' lon=' 2.338990' pincolor='6495ED' pintext='&lt;b&gt;Azabu&lt;/b&gt;&lt;br /&gt;&lt;br /&gt;3, rue Andr&#233; Mazet&lt;br /&gt;C&amp;Z'/>
<mappin name='Baan Boran' address='43, rue de Montpensier' type='restaurant' note='Paris&#39; City of Angels -- Thai' stop='Metro??' lat='48.8661189' lon=' 2.3374366' pincolor='6495ED' pintext='&lt;b&gt;Baan Boran&lt;/b&gt;&lt;br /&gt;&lt;br /&gt;43, rue de Montpensier&lt;br /&gt;Gridskipper'/>
<mappin name='Babylone' address='21, rue Daval' type='restaurant' stop='Metro??' lat='48.854569' lon=' 2.371091' pincolor='6495ED' pintext='&lt;b&gt;Babylone&lt;/b&gt;&lt;br /&gt;&lt;br /&gt;21, rue Daval&lt;br /&gt;C&amp;Z'/>
<mappin name='Le Bac &#224; Glaces' address='109, rue de Bac' type='icecream' webpage='http://www.bacaglaces.com/' note='(Closed Sunday)' stop='S&#232;vres-Babylon' lat='48.8523167' lon='2.3238644' pincolor='FF1493' pintext='&lt;b&gt;Le Bac &#224; Glaces&lt;/b&gt;&lt;br /&gt;&lt;br /&gt;109, rue de Bac&lt;br /&gt;PatisseriesOfParis'/>
<mappin name='Bachelier Antiquites' address='March&#233; Paul Bert 18, rue Paul Bert' type='xxxx' webpage='http://www.bachelier-antiquites.com/Home' stop='Metro??' lat='48.8566140' lon=' 2.3522219' pincolor='FF69B4' pintext='&lt;b&gt;Bachelier Antiquites&lt;/b&gt;&lt;br /&gt;&lt;br /&gt;March&#233; Paul Bert 18, rue Paul Bert&lt;br /&gt;David Lebovitz'/>
<mappin name='Badaboum' address='2 bis, rue des Taillandiers' type='bar' webpage='badaboum-paris.com' stop='Metro??' lat='48.8536014' lon='2.3757792' pincolor='6495ED' pintext='&lt;b&gt;Badaboum&lt;/b&gt;&lt;br /&gt;&lt;br /&gt;2 bis, rue des Taillandiers'/>
<mappin name='La Bague de Kenza' address='106, rue Saint-Maur' type='pastry' note='Algerian' stop='3-Parmentier' lat='48.866361' lon=' 2.376828' pincolor='E6E6FA' pintext='&lt;b&gt;La Bague de Kenza&lt;/b&gt;&lt;br /&gt;&lt;br /&gt;106, rue Saint-Maur&lt;br /&gt;C&amp;Z/Gourmet Shops of Paris'/>
<mappin name='Le Bal Caf&#233;' address='6, impasse de la D&#233;fense' type='restaurant' webpage='http://www.le-bal.fr/' note='British Caf&#233;/Brunch' stop='2, 13-Clichy' lat='48.8852683' lon='2.3273229' pincolor='6495ED' pintext='&lt;b&gt;Le Bal Caf&#233;&lt;/b&gt;&lt;br /&gt;&lt;br /&gt;6, impasse de la D&#233;fense&lt;br /&gt;ParisByMouth'/>
<mappin name='Balajo dance club' address='9, rue de Lappe' type='club' stop='Metro??' lat='48.8535931' lon='2.3729390' pincolor='6A6A6A' pintext='&lt;b&gt;Balajo dance club&lt;/b&gt;&lt;br /&gt;&lt;br /&gt;9, rue de Lappe&lt;br /&gt;Fodors'/>
<mappin name='Le Ballon Des Ternes' address='105, avenue des Ternes' type='restaurant' stop='Metro??' lat='48.8806382' lon=' 2.2853353' pincolor='6495ED' pintext='&lt;b&gt;Le Ballon Des Ternes&lt;/b&gt;&lt;br /&gt;&lt;br /&gt;105, avenue des Ternes&lt;br /&gt;Markets of Paris'/>
<mappin name='Balls' address='47, rue Saint-Maur' type='restaurant' webpage='https://www.facebook.com/restaurantballs' stop='3-Rue Saint-Maur|Saint-Ambroise-18' lat='48.8618351' lon='2.3803878' pincolor='6495ED' pintext='&lt;b&gt;Balls&lt;/b&gt;&lt;br /&gt;&lt;br /&gt;47, rue Saint-Maur&lt;br /&gt;ParisByMouth'/>
<mappin name='Balouga' address='25, rue des Filles-du-Calvaire' type='flea' webpage='http://www.balouga.com' stop='Filles-du-Calvaire' lat='48.863053' lon=' 2.366510' pincolor='FFFACD' pintext='&lt;b&gt;Balouga&lt;/b&gt;&lt;br /&gt;&lt;br /&gt;25, rue des Filles-du-Calvaire&lt;br /&gt;Best Vinage etc'/>
<mappin name='Le Bamboche' address='15, rue de Babylone' type='restaurant' stop='Metro??' lat='48.8517152' lon=' 2.3231085' pincolor='6495ED' pintext='&lt;b&gt;Le Bamboche&lt;/b&gt;&lt;br /&gt;&lt;br /&gt;15, rue de Babylone&lt;br /&gt;Markets of Paris'/>
<mappin name='Le Bambou' address='70, rue Baudricourt' type='restaurant' note='$ Tue-Sun Lun-Din ' stop='Tolbiac or Maison Blanche' lat='48.825218' lon='2.362479' pincolor='6495ED' pintext='&lt;b&gt;Le Bambou&lt;/b&gt;&lt;br /&gt;&lt;br /&gt;70, rue Baudricourt&lt;br /&gt;HungryForParis,DavidLebovitz'/>
<mappin name='Banlieues Bleues' address='9, rue Gabrielle Josserand, Pantin' type='xxxx' webpage='banlieuesbleues.org' stop='Metro??' lat='48.903414' lon='2.393912' pincolor='FF69B4' pintext='&lt;b&gt;Banlieues Bleues&lt;/b&gt;&lt;br /&gt;&lt;br /&gt;9, rue Gabrielle Josserand, Pantin'/>
<mappin name='Bar &#224; bulles at Galeries Lafayette' address='40, boulevard Haussmann' type='bar' note='Paris Champagne Bars' stop='Metro??' lat='48.873441' lon=' 2.332132' pincolor='6495ED' pintext='&lt;b&gt;Bar &#224; bulles at Galeries Lafayette&lt;/b&gt;&lt;br /&gt;&lt;br /&gt;40, boulevard Haussmann&lt;br /&gt;Gridskipper'/>
<mappin name='Le Bar A Huitres' address='112, boulevard du Montparnasse' type='restaurant' stop='Metro??' lat='48.8415422' lon=' 2.3300699' pincolor='6495ED' pintext='&lt;b&gt;Le Bar A Huitres&lt;/b&gt;&lt;br /&gt;&lt;br /&gt;112, boulevard du Montparnasse&lt;br /&gt;Markets of Paris'/>
<mappin name='Le Bar a Huitres' address='33, rue Saint-Jacques' type='restaurant' webpage='http://www.lebarahuitres.com/uk/index.php' stop='Metro??' lat='48.8512941' lon=' 2.3458002' pincolor='6495ED' pintext='&lt;b&gt;Le Bar a Huitres&lt;/b&gt;&lt;br /&gt;&lt;br /&gt;33, rue Saint-Jacques&lt;br /&gt;Markets of Paris'/>
<mappin name='Le Bar a Soupes' address='33, rue de Charonne' type='deli' stop='Metro??' lat='48.8533323' lon='2.3759614' pincolor='E6E6FA' pintext='&lt;b&gt;Le Bar a Soupes&lt;/b&gt;&lt;br /&gt;&lt;br /&gt;33, rue de Charonne&lt;br /&gt;GSoP'/>
<mappin name='Le Bar &#224; Soupes' address='33, rue de Charonne' type='restaurant' note='Lunch' stop='Metro??' lat='48.853298' lon=' 2.375897' pincolor='6495ED' pintext='&lt;b&gt;Le Bar &#224; Soupes&lt;/b&gt;&lt;br /&gt;&lt;br /&gt;33, rue de Charonne&lt;br /&gt;C&amp;Z'/>
<mappin name='Bar a Soupes et Quenelles' address='5, rue Princesse' type='deli' stop='Metro??' lat='48.8524586' lon='2.3346895' pincolor='E6E6FA' pintext='&lt;b&gt;Bar a Soupes et Quenelles&lt;/b&gt;&lt;br /&gt;&lt;br /&gt;5, rue Princesse&lt;br /&gt;GSoP'/>
<mappin name='Bar &#224; Soupes et Quenelles Giraudet' address='40, boulevard Haussmann' type='cafe' stop='Metro??' lat='48.873032' lon=' 2.33260' pincolor='6495ED' pintext='&lt;b&gt;Bar &#224; Soupes et Quenelles Giraudet&lt;/b&gt;&lt;br /&gt;&lt;br /&gt;40, boulevard Haussmann&lt;br /&gt;C&amp;Z'/>
<mappin name='Bar &#224; Soupes et Quenelles Giraudet' address='Inside Lafayette Gourmet, 40, boulevard Haussmann' type='cafe' note='Bar &#224; Soupes et Quenelles Giraudet' stop='Metro??' lat='48.873032' lon=' 2.33260' pincolor='6495ED' pintext='&lt;b&gt;Bar &#224; Soupes et Quenelles Giraudet&lt;/b&gt;&lt;br /&gt;&lt;br /&gt;Inside Lafayette Gourmet, 40, boulevard Haussmann&lt;br /&gt;C&amp;Z'/>
<mappin name='Bar at Hotel Costes' address='239, rue Saint-Honore' type='bar' note='The Best Hotel Bars in Paris' stop='Metro??' lat='48.8667462' lon=' 2.3281148' pincolor='6495ED' pintext='&lt;b&gt;Bar at Hotel Costes&lt;/b&gt;&lt;br /&gt;&lt;br /&gt;239, rue Saint-Honore&lt;br /&gt;Gridskipper'/>
<mappin name='Bar at Hotel Sezz' address='117, rue Lauriston' type='bar' note='Paris Champagne Bars' stop='Metro??' lat='48.8662741' lon=' 2.2866765' pincolor='6495ED' pintext='&lt;b&gt;Bar at Hotel Sezz&lt;/b&gt;&lt;br /&gt;&lt;br /&gt;117, rue Lauriston&lt;br /&gt;Gridskipper'/>
<mappin name='Bar at Pershing Hall' address='49, rue Pierre Charron' type='bar' note='The Best Hotel Bars in Paris' stop='Metro??' lat='48.869081' lon=' 2.302182' pincolor='6495ED' pintext='&lt;b&gt;Bar at Pershing Hall&lt;/b&gt;&lt;br /&gt;&lt;br /&gt;49, rue Pierre Charron&lt;br /&gt;Gridskipper'/>
<mappin name='Bar at The Murano' address='13, boulevard du Temple' type='bar' note='The Best Hotel Bars in Paris' stop='Metro??' lat='48.863969' lon=' 2.365917' pincolor='6495ED' pintext='&lt;b&gt;Bar at The Murano&lt;/b&gt;&lt;br /&gt;&lt;br /&gt;13, boulevard du Temple&lt;br /&gt;Gridskipper'/>
<mappin name='Le Bar du Marche' address='75, rue du Seine' type='cafe' stop='10-Mabillon 4-Saint-Germain-des-Pr&#233;s' lat='48.853968' lon=' 2.336992' pincolor='6495ED' pintext='&lt;b&gt;Le Bar du Marche&lt;/b&gt;&lt;br /&gt;&lt;br /&gt;75, rue du Seine&lt;br /&gt;SpottedByLocals'/>
<mappin name='Le Bar du Plaza Athenee' address='avenue Montaigne' type='bar' note='The City of Lights Best Free Bar Food' stop='Metro??' lat='48.867022' lon=' 2.306278' pincolor='6495ED' pintext='&lt;b&gt;Le Bar du Plaza Athenee&lt;/b&gt;&lt;br /&gt;&lt;br /&gt;avenue Montaigne&lt;br /&gt;Gridskipper'/>
<mappin name='Bar Montaigne at Plaza Athenee' address='avenue Montaigne' type='bar' note='The Best Hotel Bars in Paris' stop='Metro??' lat='48.866144' lon=' 2.304174' pincolor='6495ED' pintext='&lt;b&gt;Bar Montaigne at Plaza Athenee&lt;/b&gt;&lt;br /&gt;&lt;br /&gt;avenue Montaigne&lt;br /&gt;Gridskipper'/>
<mappin name='La Baracane' address='38, rue des Tournelles' type='bistro' stop='Metro??' lat='48.8555738' lon=' 2.3673163' pincolor='6495ED' pintext='&lt;b&gt;La Baracane&lt;/b&gt;&lt;br /&gt;&lt;br /&gt;38, rue des Tournelles&lt;br /&gt;Markets of Paris'/>
<mappin name='Le Baratin ' address='3, rue Jouye-Rouve' type='restaurant' note='Wine Bar' stop='11-Pyrenées or Belleville' lat='48.8731293' lon='2.3829178' pincolor='6495ED' pintext='&lt;b&gt;Le Baratin &lt;/b&gt;&lt;br /&gt;&lt;br /&gt;3, rue Jouye-Rouve&lt;br /&gt;ParisByMouth,HungryForParis'/>
<mappin name='Le Barav' address='6, rue Charles Fran&#231;ois Dupuis' type='restaurant' webpage='http://www.lebarav.fr/accueil.html' stop='3, 5, 8, 9, 11-République' lat='48.8652695' lon='2.3633397' pincolor='6495ED' pintext='&lt;b&gt;Le Barav&lt;/b&gt;&lt;br /&gt;&lt;br /&gt;6, rue Charles Fran&#231;ois Dupuis&lt;br /&gt;ParisByMouth'/>
<mappin name='Barbes Rochechouart street market ' address='Under the tracks' type='xxxx' note='Wed&amp;+T1332Sat until 2:00' stop='Barbes Rochechouart' lat='48.88363' lon=' 2.34898' pincolor='FF69B4' pintext='&lt;b&gt;Barbes Rochechouart street market &lt;/b&gt;&lt;br /&gt;&lt;br /&gt;Under the tracks'/>
<mappin name='Baron Aligre Le' address='1, rue Th&#233;ophile Roussel' type='xxxx' stop='Metro??' lat='48.849427' lon=' 2.37757' pincolor='FF69B4' pintext='&lt;b&gt;Baron Aligre Le&lt;/b&gt;&lt;br /&gt;&lt;br /&gt;1, rue Th&#233;ophile Roussel'/>
<mappin name='Le Baron Rouge' address='1, rue Th&#233;ophile Roussel' type='winebar' stop='8 -Ledru-Rollin' lat='48.8494016' lon='2.3776168' pincolor='7F007F' pintext='&lt;b&gt;Le Baron Rouge&lt;/b&gt;&lt;br /&gt;&lt;br /&gt;1, rue Th&#233;ophile Roussel&lt;br /&gt;ParisByMouth'/>
<mappin name='Barrio Latino' address='46, rue du Faubourg Saint-Antoine' type='cafe' note='Cuban Paris' stop='Metro??' lat='48.8521941' lon=' 2.3726414' pincolor='6495ED' pintext='&lt;b&gt;Barrio Latino&lt;/b&gt;&lt;br /&gt;&lt;br /&gt;46, rue du Faubourg Saint-Antoine&lt;br /&gt;Gridskipper'/>
<mappin name='Au Bascou' address='38, rue Reaumur' type='restaurant' note='$$ Mon-Fri Lun-Din ' stop='Arts-et-Metiers, Reaumur' lat='48.8654251' lon=' 2.3574017' pincolor='6495ED' pintext='&lt;b&gt;Au Bascou&lt;/b&gt;&lt;br /&gt;&lt;br /&gt;38, rue Reaumur&lt;br /&gt;HungryForParis'/>
<mappin name='Baseball(!) at Bois de Vincennes' address='Bois de Vincennes, avenue de' type='restaurant' note='Tastes of the U.S.A. in Paris' stop='Metro??' lat='48.8455565' lon=' 2.4284084' pincolor='6495ED' pintext='&lt;b&gt;Baseball(!) at Bois de Vincennes&lt;/b&gt;&lt;br /&gt;&lt;br /&gt;Bois de Vincennes, avenue de&lt;br /&gt;Gridskipper'/>
<mappin name='Basilica Cathedral of Saint Denis' address='1, place de la Legion d&#39;Honneur' type='church' stop='Metro??' lat='48.93549' lon=' 2.35970' pincolor='8B0000' pintext='&lt;b&gt;Basilica Cathedral of Saint Denis&lt;/b&gt;&lt;br /&gt;&lt;br /&gt;1, place de la Legion d&#39;Honneur'/>
<mappin name='Basilica of Sainte-Clotilde' address='23, bis, rue las Cases' type='church' stop='Metro??' lat='48.85869' lon=' 2.31953' pincolor='8B0000' pintext='&lt;b&gt;Basilica of Sainte-Clotilde&lt;/b&gt;&lt;br /&gt;&lt;br /&gt;23, bis, rue las Cases'/>
<mappin name='La Bastide Odeon' address='7, rue Corneille' type='restaurant' webpage='http://www.bastide-odeon.com' note='$$ Tue-Sat Lun-Din' stop='Odeon' lat='48.8493451' lon=' 2.3391110' pincolor='6495ED' pintext='&lt;b&gt;La Bastide Odeon&lt;/b&gt;&lt;br /&gt;&lt;br /&gt;7, rue Corneille&lt;br /&gt;HungryForParis'/>
<mappin name='Bastille Metro Station' address='place de la Bastille' type='tosee' note='Most Beautiful Metro Stations' stop='1-Bastille' lat='48.85309' lon=' 2.36918' pincolor='FB7EFD' pintext='&lt;b&gt;Bastille Metro Station&lt;/b&gt;&lt;br /&gt;&lt;br /&gt;place de la Bastille'/>
<mappin name='Bastille Opera' address='120, rue de Lyon' type='tosee' stop='Metro??' lat='48.851432' lon='2.369908' pincolor='FB7EFD' pintext='&lt;b&gt;Bastille Opera&lt;/b&gt;&lt;br /&gt;&lt;br /&gt;120, rue de Lyon'/>
<mappin name='Le BAT' address='16, bis boulevard Montmartre' type='restaurant' webpage='https://www.facebook.com/pages/Le-BAT/496650403737735' note='Tapas' stop='8,9-Grands Boulevards' lat='48.8721388' lon='2.3411542' pincolor='6495ED' pintext='&lt;b&gt;Le BAT&lt;/b&gt;&lt;br /&gt;&lt;br /&gt;16, bis boulevard Montmartre&lt;br /&gt;ParisByMouth'/>
<mappin name='Bateaux de Paris' address='Port de Suffren' type='tosee' note='Paris by Boat' stop='Metro??' lat='48.8573204' lon=' 2.289875' pincolor='FB7EFD' pintext='&lt;b&gt;Bateaux de Paris&lt;/b&gt;&lt;br /&gt;&lt;br /&gt;Port de Suffren&lt;br /&gt;Gridskipper'/>
<mappin name='Bateaux Mouches' address='Pont de l&#39;Alma' type='tosee' note='Paris by Boat' stop='Metro??' lat='48.863550' lon=' 2.301641' pincolor='FB7EFD' pintext='&lt;b&gt;Bateaux Mouches&lt;/b&gt;&lt;br /&gt;&lt;br /&gt;Pont de l&#39;Alma&lt;br /&gt;Gridskipper'/>
<mappin name='Bateaux Parisiens' address='Port de La Bourdonnais' type='tosee' note='Paris by Boat' stop='Metro??' lat='48.8606463' lon=' 2.2954583' pincolor='FB7EFD' pintext='&lt;b&gt;Bateaux Parisiens&lt;/b&gt;&lt;br /&gt;&lt;br /&gt;Port de La Bourdonnais&lt;br /&gt;Gridskipper'/>
<mappin name='Batobus' address='Port des Champs by Pont Alexandre III' type='tosee' note='Paris by Boat' stop='Metro??' lat='48.863708' lon=' 2.3135309' pincolor='FB7EFD' pintext='&lt;b&gt;Batobus&lt;/b&gt;&lt;br /&gt;&lt;br /&gt;Port des Champs by Pont Alexandre III&lt;br /&gt;Gridskipper'/>
<mappin name='Be' address='73, boulevard de Courcelles' type='deli' stop='Metro??' lat='48.8784799' lon='2.3012039' pincolor='E6E6FA' pintext='&lt;b&gt;Be&lt;/b&gt;&lt;br /&gt;&lt;br /&gt;73, boulevard de Courcelles&lt;br /&gt;GSoP'/>
<mappin name='Beau et Bon' address='81, rue Lecourbe' type='food' note='Fine foods' stop='Metro??' lat='48.843244' lon=' 2.304808' pincolor='778899' pintext='&lt;b&gt;Beau et Bon&lt;/b&gt;&lt;br /&gt;&lt;br /&gt;81, rue Lecourbe&lt;br /&gt;C&amp;Z'/>
<mappin name='Bechu' address='118, avenue Victor Hugo' type='patisserie' stop='Victor Hugo' lat='48.868178' lon='2.281605' pincolor='E6E6FA' pintext='&lt;b&gt;Bechu&lt;/b&gt;&lt;br /&gt;&lt;br /&gt;118, avenue Victor Hugo&lt;br /&gt;PatisseriesOfParis'/>
<mappin name='Beef Club' address='58, rue Jean Jacques Rousseau' type='restaurant' webpage='http://eccbeefclub.com/' stop='4-Les Halles' lat='48.8639666' lon='2.3434085' pincolor='6495ED' pintext='&lt;b&gt;Beef Club&lt;/b&gt;&lt;br /&gt;&lt;br /&gt;58, rue Jean Jacques Rousseau&lt;br /&gt;ParisByMouth'/>
<mappin name='Au Behier d&#39;Argent' address='5, place Jacques Marette' type='cafe' stop='Metro??' lat='48.83300' lon=' 2.30076' pincolor='6495ED' pintext='&lt;b&gt;Au Behier d&#39;Argent&lt;/b&gt;&lt;br /&gt;&lt;br /&gt;5, place Jacques Marette'/>
<mappin name='Le Belisaire' address='2, rue Marmontel' type='bistro' note='Gastro Bistro' stop='Convention' lat='48.837444' lon=' 2.300899' pincolor='6495ED' pintext='&lt;b&gt;Le Belisaire&lt;/b&gt;&lt;br /&gt;&lt;br /&gt;2, rue Marmontel&lt;br /&gt;C&amp;Z Eats / HungryForParis'/>
<mappin name='La Belle Hortense' address='31, rue Vieille-du-Temple' type='caf&#233;' webpage='http://www.cafeine.com' stop='Metro??' lat='48.8575673' lon=' 2.3575796' pincolor='A0A0A0' pintext='&lt;b&gt;La Belle Hortense&lt;/b&gt;&lt;br /&gt;&lt;br /&gt;31, rue Vieille-du-Temple'/>
<mappin name='Belle Lurette' address='5, rue du March&#232;-Popincourt' type='flea' stop='Parmentier' lat='48.864141' lon=' 2.373551' pincolor='FFFACD' pintext='&lt;b&gt;Belle Lurette&lt;/b&gt;&lt;br /&gt;&lt;br /&gt;5, rue du March&#232;-Popincourt&lt;br /&gt;Best Vinage etc'/>
<mappin name='Les Belles Miettes' address='96, rue Jean-Pierre Timbaud' type='bistro' stop='Metro??' lat='48.867877' lon=' 2.378092' pincolor='6495ED' pintext='&lt;b&gt;Les Belles Miettes&lt;/b&gt;&lt;br /&gt;&lt;br /&gt;96, rue Jean-Pierre Timbaud'/>
<mappin name='Belleville Market' address='boulevard de Belleville' type='market' note='Belville' stop='2,11-Bellville' lat='48.8695652' lon='2.3799839' pincolor='FFF8DC' pintext='&lt;b&gt;Belleville Market&lt;/b&gt;&lt;br /&gt;&lt;br /&gt;boulevard de Belleville&lt;br /&gt;FrenchWordADay09'/>
<mappin name='La Bellevilloise' address='19, rue Boyer' type='park' note='Secret Gardens in the City of Light' stop='Metro??' lat='48.8684828' lon=' 2.3921749' pincolor='32CD32' pintext='&lt;b&gt;La Bellevilloise&lt;/b&gt;&lt;br /&gt;&lt;br /&gt;19, rue Boyer&lt;br /&gt;Gridskipper'/>
<mappin name='Bellota-Bellota' address='18, rue Jean-Nicot' type='restaurant' webpage='http://www.bellota-bellota.com/' note='Spanish fine foods' stop='Invalides, or La Tour-Maubourg' lat='48.8603967' lon='2.3071018' pincolor='6495ED' pintext='&lt;b&gt;Bellota-Bellota&lt;/b&gt;&lt;br /&gt;&lt;br /&gt;18, rue Jean-Nicot&lt;br /&gt;ParisByMouth'/>
<mappin name='Benkay' address='61, Quai de Grenelle' type='restaurant' note='Eating Japanese in Paris' stop='Metro??' lat='48.8500898' lon=' 2.2832858' pincolor='6495ED' pintext='&lt;b&gt;Benkay&lt;/b&gt;&lt;br /&gt;&lt;br /&gt;61, Quai de Grenelle&lt;br /&gt;Gridskipper'/>
<mappin name='Benoit' address='20, rue Saint-Martin' type='restaurant' webpage='http://www.benoit-paris.com/' stop='1, 11-Hotel de Ville' lat='48.8583849' lon='2.350088' pincolor='6495ED' pintext='&lt;b&gt;Benoit&lt;/b&gt;&lt;br /&gt;&lt;br /&gt;20, rue Saint-Martin&lt;br /&gt;ParisByMouth'/>
<mappin name='Bercy Village' address='28, rue Fran&#231;ois Truffaut' type='shop' note='The 15 Top Department Stores In Paris' stop='Metro??' lat='48.8342758' lon=' 2.3872869' pincolor='8080' pintext='&lt;b&gt;Bercy Village&lt;/b&gt;&lt;br /&gt;&lt;br /&gt;28, rue Fran&#231;ois Truffaut&lt;br /&gt;Gridskipper'/>
<mappin name='Berko' address='23, rue Rambuteau' type='restaurant' note='Tastes of the U.S.A. in Paris' stop='Metro??' lat='48.860841' lon=' 2.354481' pincolor='6495ED' pintext='&lt;b&gt;Berko&lt;/b&gt;&lt;br /&gt;&lt;br /&gt;23, rue Rambuteau&lt;br /&gt;Gridskipper'/>
<mappin name='Berthillon' address='31, rue Saint-Louis en l&#39;&#206;le' type='icecream' webpage='http://www.amorino.com/en/' note='(Closed Mondays and Tuesdays, the second half of July and all of August.)' stop='Pont Marie' lat='48.8517262' lon='2.3567618' pincolor='FF1493' pintext='&lt;b&gt;Berthillon&lt;/b&gt;&lt;br /&gt;&lt;br /&gt;31, rue Saint-Louis en l&#39;&#206;le&lt;br /&gt;DavidLebovitz,GSoP'/>
<mappin name='Besneir Pere et Fils' address='40, rue de Bourgogne' type='patisserie' stop='Varenne' lat='48.857208' lon='2.317324' pincolor='E6E6FA' pintext='&lt;b&gt;Besneir Pere et Fils&lt;/b&gt;&lt;br /&gt;&lt;br /&gt;40, rue de Bourgogne&lt;br /&gt;PatisseriesOfParis'/>
<mappin name='Betjeman and Barton' address='24, boulevard des Filles du Calvaire' type='food' note='Th&#233;/Caf&#233;' stop='Metro??' lat='48.862249' lon=' 2.366949' pincolor='778899' pintext='&lt;b&gt;Betjeman and Barton&lt;/b&gt;&lt;br /&gt;&lt;br /&gt;24, boulevard des Filles du Calvaire&lt;br /&gt;C&amp;Z'/>
<mappin name='Betjeman and Barton' address='23, boulevard Malesherbes' type='food' note='Th&#233;/Caf&#233;' stop='Metro??' lat='48.872270' lon=' 2.321652' pincolor='778899' pintext='&lt;b&gt;Betjeman and Barton&lt;/b&gt;&lt;br /&gt;&lt;br /&gt;23, boulevard Malesherbes&lt;br /&gt;C&amp;Z'/>
<mappin name='Beurre Noisette' address='68, rue Vasco de Gama' type='restaurant' note='Not So Pricey Paris Bistros' stop='Lourmel' lat='48.8356996' lon=' 2.2848641' pincolor='6495ED' pintext='&lt;b&gt;Beurre Noisette&lt;/b&gt;&lt;br /&gt;&lt;br /&gt;68, rue Vasco de Gama&lt;br /&gt;HungryForParis'/>
<mappin name='BHV' address='55, rue de la Verrerie' type='tosee' stop='Metro??' lat='48.8578383' lon=' 2.3531949' pincolor='FB7EFD' pintext='&lt;b&gt;BHV&lt;/b&gt;&lt;br /&gt;&lt;br /&gt;55, rue de la Verrerie&lt;br /&gt;David Lebovitz'/>
<mappin name='BHV' address='14, rue du Temple' type='tosee' note='Tableware' stop='Metro??' lat='48.858266' lon=' 2.353207' pincolor='FB7EFD' pintext='&lt;b&gt;BHV&lt;/b&gt;&lt;br /&gt;&lt;br /&gt;14, rue du Temple&lt;br /&gt;C&amp;Z'/>
<mappin name='Biblioth&#232;que historique de la ville de Paris' address='24, rue Pav&#233;e' type='building' stop='Metro??' lat='48.857217' lon=' 2.361803' pincolor='A0A0A0' pintext='&lt;b&gt;Biblioth&#232;que historique de la ville de Paris&lt;/b&gt;&lt;br /&gt;&lt;br /&gt;24, rue Pav&#233;e'/>
<mappin name='Bibliotheque Ste.-Genevieve' address='' type='building' note='Latin Quarter' stop='10-Cardinal Lemoine' lat='48.84702' lon=' 2.34589' pincolor='A0A0A0' pintext='&lt;b&gt;Bibliotheque Ste.-Genevieve&lt;/b&gt;'/>
<mappin name='&#192; la Biche au Bois' address='45, avenue Ledru-Rollin' type='restaurant' stop='1, 14, RER A-Gare de Lyon' lat='48.848204' lon='2.3706142' pincolor='6495ED' pintext='&lt;b&gt;&#192; la Biche au Bois&lt;/b&gt;&lt;br /&gt;&lt;br /&gt;45, avenue Ledru-Rollin&lt;br /&gt;ParisByMouth'/>
<mappin name='Big Fernand' address='55, rue du Faubourg Poissonni&#232;re' type='restaurant' webpage='http://www.bigfernand.com/fr/browse/home/index.php' note='MTWTFS_ American' stop='7-Poissonnière' lat='48.8747504' lon='2.3479805' pincolor='6495ED' pintext='&lt;b&gt;Big Fernand&lt;/b&gt;&lt;br /&gt;&lt;br /&gt;55, rue du Faubourg Poissonni&#232;re&lt;br /&gt;ParisByMouth'/>
<mappin name='BIOArt' address='Quai Francois Mauriac' type='restaurant' note='Health-Conscious Paris Dining' stop='Metro??' lat='48.8341088' lon=' 2.3773645' pincolor='6495ED' pintext='&lt;b&gt;BIOArt&lt;/b&gt;&lt;br /&gt;&lt;br /&gt;Quai Francois Mauriac&lt;br /&gt;Gridskipper'/>
<mappin name='Bioboa' address='3, rue Danielle Casanova' type='restaurant' note='Burger Cravings in Paris' stop='Metro??' lat='48.8678791' lon=' 2.3320058' pincolor='6495ED' pintext='&lt;b&gt;Bioboa&lt;/b&gt;&lt;br /&gt;&lt;br /&gt;3, rue Danielle Casanova&lt;br /&gt;Gridskipper'/>
<mappin name='Biron Market' address='85, rue des Rosiers' type='flea' webpage='http://www.marcheauxpuces-saintouen.com/4.aspx?sr=2' stop='Metro??' lat='48.902654' lon=' 2.341568' pincolor='FFFACD' pintext='&lt;b&gt;Biron Market&lt;/b&gt;&lt;br /&gt;&lt;br /&gt;85, rue des Rosiers'/>
<mappin name='Le Bis du Severo' address='16, rue des Plantes' type='bistro' note='Gastro Bistro' stop='Metro??' lat='48.831590' lon=' 2.32433' pincolor='6495ED' pintext='&lt;b&gt;Le Bis du Severo&lt;/b&gt;&lt;br /&gt;&lt;br /&gt;16, rue des Plantes&lt;br /&gt;C&amp;Z Eats'/>
<mappin name='Le Bistral' address='80, rue Lemercier' type='bistro' note='Not So Pricey Paris Bistros' stop='Metro??' lat='48.8885503' lon=' 2.3205152' pincolor='6495ED' pintext='&lt;b&gt;Le Bistral&lt;/b&gt;&lt;br /&gt;&lt;br /&gt;80, rue Lemercier&lt;br /&gt;Gridskipper'/>
<mappin name='Bistro Bellet' address='84, rue du Faubourg-Saint-Denis' type='restaurant' note='_MTWTFS_ Modern French' stop='Château d’Eau (4), Gare de L’Est (4,5,7)' lat='48.873528' lon='2.3558836' pincolor='6495ED' pintext='&lt;b&gt;Bistro Bellet&lt;/b&gt;&lt;br /&gt;&lt;br /&gt;84, rue du Faubourg-Saint-Denis&lt;br /&gt;ParisByMouth'/>
<mappin name='Le Bistro Cote Mer' address='16, boulevard Saint-Germain' type='restaurant' stop='Metro??' lat='48.8494586' lon=' 2.3541302' pincolor='6495ED' pintext='&lt;b&gt;Le Bistro Cote Mer&lt;/b&gt;&lt;br /&gt;&lt;br /&gt;16, boulevard Saint-Germain&lt;br /&gt;Markets of Paris'/>
<mappin name='Bistro des Augustins' address='39, Quai des Grands Augustins' type='restaurant' stop='4-Saint-Michel' lat='48.854727' lon=' 2.342233' pincolor='6495ED' pintext='&lt;b&gt;Bistro des Augustins&lt;/b&gt;&lt;br /&gt;&lt;br /&gt;39, Quai des Grands Augustins&lt;br /&gt;FrenchWordADay09'/>
<mappin name='Le Bistro des Dames' address='18, rue Dames' type='park' note='Secret Gardens in the City of Light' stop='Metro??' lat='48.8850444' lon=' 2.3251493' pincolor='32CD32' pintext='&lt;b&gt;Le Bistro des Dames&lt;/b&gt;&lt;br /&gt;&lt;br /&gt;18, rue Dames&lt;br /&gt;Gridskipper'/>
<mappin name='Le Bistro des Gastronomes' address='10, rue Cardinal Lemoine' type='restaurant' stop='10-Cardinal Lemoine' lat='48.8491048' lon='2.353876' pincolor='6495ED' pintext='&lt;b&gt;Le Bistro des Gastronomes&lt;/b&gt;&lt;br /&gt;&lt;br /&gt;10, rue Cardinal Lemoine&lt;br /&gt;ParisByMouth'/>
<mappin name='Le Bistro du D&#244;me' address='1, rue Delambre' type='restaurant' stop='4-Vavin' lat='48.8418769' lon='2.329552' pincolor='6495ED' pintext='&lt;b&gt;Le Bistro du D&#244;me&lt;/b&gt;&lt;br /&gt;&lt;br /&gt;1, rue Delambre&lt;br /&gt;ParisByMouth'/>
<mappin name='Bistro du Peintre' address='116, Ledru-Rollin' type='bistro' stop='Metro??' lat='48.853204' lon=' 2.377335' pincolor='6495ED' pintext='&lt;b&gt;Bistro du Peintre&lt;/b&gt;&lt;br /&gt;&lt;br /&gt;116, Ledru-Rollin'/>
<mappin name='Bistro Les Papilles' address='30, rue Gay Lussac' type='bistro' webpage='http://www.lespapillesparis.fr/' stop='RER B-Luxembourg' lat='48.8445814' lon='2.3417756' pincolor='6495ED' pintext='&lt;b&gt;Bistro Les Papilles&lt;/b&gt;&lt;br /&gt;&lt;br /&gt;30, rue Gay Lussac&lt;br /&gt;BBC'/>
<mappin name='Bistro Les Papilleschef' address='30, rue Gay Lussac' type='bistro' stop='Metro??' lat='48.8445972' lon=' 2.3417673' pincolor='6495ED' pintext='&lt;b&gt;Bistro Les Papilleschef&lt;/b&gt;&lt;br /&gt;&lt;br /&gt;30, rue Gay Lussac&lt;br /&gt;BBC'/>
<mappin name='Bistro Melac' address='42, rue Leon Frot' type='bistro' stop='Metro??' lat='48.855620' lon=' 2.386798' pincolor='6495ED' pintext='&lt;b&gt;Bistro Melac&lt;/b&gt;&lt;br /&gt;&lt;br /&gt;42, rue Leon Frot'/>
<mappin name='Bistro Paul Bert' address='18, rue Paul Bert' type='bistro' note='Not So Pricey Paris Bistros' stop='Faidherbe-Chaligny' lat='48.8522062' lon=' 2.3848823' pincolor='6495ED' pintext='&lt;b&gt;Bistro Paul Bert&lt;/b&gt;&lt;br /&gt;&lt;br /&gt;18, rue Paul Bert&lt;br /&gt;HungryForParis'/>
<mappin name='Le Bistro Volnay' address='8, rue Volney' type='restaurant' stop='3, 7, 8 -Opéra' lat='48.8692098' lon='2.3300298' pincolor='6495ED' pintext='&lt;b&gt;Le Bistro Volnay&lt;/b&gt;&lt;br /&gt;&lt;br /&gt;8, rue Volney&lt;br /&gt;ParisByMouth'/>
<mappin name='Les Bistronomes' address='34, rue de Richelieu' type='restaurant' stop='7, 14-Pyramides' lat='48.865568' lon='2.3369666' pincolor='6495ED' pintext='&lt;b&gt;Les Bistronomes&lt;/b&gt;&lt;br /&gt;&lt;br /&gt;34, rue de Richelieu&lt;br /&gt;ParisByMouth'/>
<mappin name='Bistrot Belhara' address='27, rue Duvivier' type='restaurant' webpage='http://www.bistrotbelhara.com/' note='Basque-influenced' stop='8-École Militaire|La Tour-Maubourg-20' lat='48.8558027' lon='2.3076037' pincolor='6495ED' pintext='&lt;b&gt;Bistrot Belhara&lt;/b&gt;&lt;br /&gt;&lt;br /&gt;27, rue Duvivier&lt;br /&gt;ParisByMouth'/>
<mappin name='Le Bistrot d&#39;Henri' address='16, rue Princesse' type='bistro' webpage='http://www.bistrotdhenri.com/lang1/' stop='10-Mabillon' lat='48.852145' lon=' 2.334487' pincolor='6495ED' pintext='&lt;b&gt;Le Bistrot d&#39;Henri&lt;/b&gt;&lt;br /&gt;&lt;br /&gt;16, rue Princesse&lt;br /&gt;FrenchWordADay09'/>
<mappin name='Le Bistrot du Boursier' address='88, rue de Richelieu' type='bistro' note='Get Melty in Paris' stop='Metro??' lat='48.870168' lon=' 2.339234' pincolor='6495ED' pintext='&lt;b&gt;Le Bistrot du Boursier&lt;/b&gt;&lt;br /&gt;&lt;br /&gt;88, rue de Richelieu&lt;br /&gt;Gridskipper'/>
<mappin name='Le Bistrot du Dome' address='1, rue Dlambre' type='restaurant' stop='Metro??' lat='48.8418309' lon=' 2.3291959' pincolor='6495ED' pintext='&lt;b&gt;Le Bistrot du Dome&lt;/b&gt;&lt;br /&gt;&lt;br /&gt;1, rue Dlambre&lt;br /&gt;Markets of Paris'/>
<mappin name='Bistrot la Bruy&#232;re' address='31, rue La Bruy&#232;re' type='restaurant' webpage='https://www.facebook.com/BistrotLaBruyere' stop='12-Saint-Georges' lat='48.8792617' lon='2.333921' pincolor='6495ED' pintext='&lt;b&gt;Bistrot la Bruy&#232;re&lt;/b&gt;&lt;br /&gt;&lt;br /&gt;31, rue La Bruy&#232;re&lt;br /&gt;ParisByMouth'/>
<mappin name='Bistrot Paul Bert ' address='18, rue Paul Bert' type='restaurant' stop='8-Faidherbe-Chaligny' lat='48.8522042' lon='2.38508' pincolor='6495ED' pintext='&lt;b&gt;Bistrot Paul Bert &lt;/b&gt;&lt;br /&gt;&lt;br /&gt;18, rue Paul Bert&lt;br /&gt;ParisByMouth'/>
<mappin name='Bistrot Valois' address='1, place de Valois' type='bistro' stop='Metro??' lat='48.8633871' lon='2.3382171' pincolor='6495ED' pintext='&lt;b&gt;Bistrot Valois&lt;/b&gt;&lt;br /&gt;&lt;br /&gt;1, place de Valois'/>
<mappin name='Le Bistrot Vivienne' address='4, rue des Petits Champs' type='bistro' webpage='http://www.bistrotvivienne.com/' stop='3-Bourse' lat='48.866215' lon=' 2.339361' pincolor='6495ED' pintext='&lt;b&gt;Le Bistrot Vivienne&lt;/b&gt;&lt;br /&gt;&lt;br /&gt;4, rue des Petits Champs&lt;br /&gt;ParisDailyPhoto.com'/>
<mappin name='BlackBlock' address='13, avenue du Pr&#233;sident Wilson' type='shop' note='Sure Shot Parisian Gift Shopping' stop='Metro??' lat='48.864661' lon=' 2.294980' pincolor='8080' pintext='&lt;b&gt;BlackBlock&lt;/b&gt;&lt;br /&gt;&lt;br /&gt;13, avenue du Pr&#233;sident Wilson&lt;br /&gt;Gridskipper'/>
<mappin name='Ble Sucre' address='7, rue Antoine Vollon' type='bakery' note='Pastry shop' stop='Metro??' lat='48.850536' lon=' 2.376886' pincolor='E6E6FA' pintext='&lt;b&gt;Ble Sucre&lt;/b&gt;&lt;br /&gt;&lt;br /&gt;7, rue Antoine Vollon&lt;br /&gt;C&amp;Z Shops'/>
<mappin name='Blue Elephant' address='43, rue Roquette' type='restaurant' note='Paris&#39; City of Angels -- Thai' stop='Metro??' lat='48.8554048' lon=' 2.3740085' pincolor='6495ED' pintext='&lt;b&gt;Blue Elephant&lt;/b&gt;&lt;br /&gt;&lt;br /&gt;43, rue Roquette&lt;br /&gt;Gridskipper'/>
<mappin name='Blue Valentine' address='13, rue de la Pierre Lev&#233;e' type='restaurant' webpage='https://www.facebook.com/bluevalentinerestaurant' stop='3-Parmentier|Goncourt-13' lat='48.8674291' lon='2.3702413' pincolor='6495ED' pintext='&lt;b&gt;Blue Valentine&lt;/b&gt;&lt;br /&gt;&lt;br /&gt;13, rue de la Pierre Lev&#233;e&lt;br /&gt;ParisByMouth'/>
<mappin name='Bobino' address='20, rue Gaite' type='caberet' note='Cabaret' stop='Metro??' lat='48.8396523' lon=' 2.3235315' pincolor='A0A0A0' pintext='&lt;b&gt;Bobino&lt;/b&gt;&lt;br /&gt;&lt;br /&gt;20, rue Gaite&lt;br /&gt;Gridskipper'/>
<mappin name='Bob&#39;s Bake Shop' address='Halle, Pajol, 12 esplanade Nathalie Sarraute (across from 39 rue Pajol)' type='restaurant' webpage='http://www.bobsjuicebar.com/' stop='12-Marx Dormoy|La Chapelle-15' lat='48.888496' lon=' 2.361868' pincolor='6495ED' pintext='&lt;b&gt;Bob&#39;s Bake Shop&lt;/b&gt;&lt;br /&gt;&lt;br /&gt;Halle, Pajol, 12 esplanade Nathalie Sarraute (across from 39 rue Pajol)&lt;br /&gt;ParisByMouth'/>
<mappin name='Bob&#39;s Juice Bar' address='30, rue Debelleyme,' type='cafe' note='MTWTFSS Health Food Vegetarian, Lunch for two, about 20 euros.' stop='Metro??' lat='48.862034' lon=' 2.363541' pincolor='6495ED' pintext='&lt;b&gt;Bob&#39;s Juice Bar&lt;/b&gt;&lt;br /&gt;&lt;br /&gt;30, rue Debelleyme,&lt;br /&gt;BBC'/>
<mappin name='Bob&#39;s Juice Bar' address='15, rue Lucien Sampaix' type='cafe' webpage='http://www.bobsjuicebar.com/' note='MTWTFSS Health Food Vegetarian, Lunch for two, about 20 euros.' stop='5-Jacques Bonsergent' lat='48.872029' lon='2.3604325' pincolor='6495ED' pintext='&lt;b&gt;Bob&#39;s Juice Bar&lt;/b&gt;&lt;br /&gt;&lt;br /&gt;15, rue Lucien Sampaix&lt;br /&gt;ParisByMouth'/>
<mappin name='Bob&#39;s Kitchen' address='74, rue des Gravilliers' type='restaurant' stop='3, 11-Arts et Metiers' lat='48.8645686' lon='2.3545663' pincolor='6495ED' pintext='&lt;b&gt;Bob&#39;s Kitchen&lt;/b&gt;&lt;br /&gt;&lt;br /&gt;74, rue des Gravilliers&lt;br /&gt;ParisByMouth'/>
<mappin name='Au Boeuf Couronn&#233;' address='188, avenue Jean-Jaur&#232;s' type='restaurant' webpage='http://www.gerard-joulie.com/index.html' stop='5-Porte de Pantin' lat='48.8879585' lon='2.3910173' pincolor='6495ED' pintext='&lt;b&gt;Au Boeuf Couronn&#233;&lt;/b&gt;&lt;br /&gt;&lt;br /&gt;188, avenue Jean-Jaur&#232;s&lt;br /&gt;ParisByMouth'/>
<mappin name='Bofinger' address='5-7, rue de la Bastille' type='restaurant' stop='Metro??' lat='48.8538272' lon=' 2.3680240' pincolor='6495ED' pintext='&lt;b&gt;Bofinger&lt;/b&gt;&lt;br /&gt;&lt;br /&gt;5-7, rue de la Bastille&lt;br /&gt;Markets of Paris'/>
<mappin name='Bois de Boulogne' address='Bois de boulogne' type='park' webpage='http://www.paris.fr/loisirs/paris-au-vert/bois-de-boulogne/p6567' stop='10-Porte d&#39;Auteuil 2-Porte Dauphine 11-Porte Maillot / Porte Maillot, then bus 244, Pont de Neuilly then bus 43' lat='48.8631' lon=' 2.2511' pincolor='32CD32' pintext='&lt;b&gt;Bois de Boulogne&lt;/b&gt;&lt;br /&gt;&lt;br /&gt;Bois de boulogne&lt;br /&gt;FrenchWordADay09'/>
<mappin name='Bois de Vincennes: Parc Floral' address='283, avenue de Daumesnil' type='park' stop='Chateau de Vincennes, Port Doree, Porte de Charento, Buses 46 and 86' lat='48.83744' lon=' 2.4465' pincolor='32CD32' pintext='&lt;b&gt;Bois de Vincennes: Parc Floral&lt;/b&gt;&lt;br /&gt;&lt;br /&gt;283, avenue de Daumesnil'/>
<mappin name='Boissier' address='184, avenue Victor Hugo' type='chocolate' stop='Victor Hugo' lat='48.865629' lon='2.275575' pincolor='D2691E' pintext='&lt;b&gt;Boissier&lt;/b&gt;&lt;br /&gt;&lt;br /&gt;184, avenue Victor Hugo&lt;br /&gt;GSoP, PatisseriesOfParis'/>
<mappin name='Bombardier' address='68, place du Panth&#233;on' type='bar' note='Best Paris Dive Bars' stop='Metro??' lat='48.846796' lon=' 2.347639' pincolor='6495ED' pintext='&lt;b&gt;Bombardier&lt;/b&gt;&lt;br /&gt;&lt;br /&gt;68, place du Panth&#233;on&lt;br /&gt;Gridskipper'/>
<mappin name='Au Bon Accueil' address='14, rue de Monttessuy' type='restaurant' stop='Metro??' lat='48.8596099' lon=' 2.2993434' pincolor='6495ED' pintext='&lt;b&gt;Au Bon Accueil&lt;/b&gt;&lt;br /&gt;&lt;br /&gt;14, rue de Monttessuy&lt;br /&gt;Markets of Paris'/>
<mappin name='Le Bon Marche' address='24, rue de S&#232;vres' type='food' webpage='lebonmarche.com' note='Glass and steel construction' stop='Metro??' lat='48.850319' lon=' 2.324356' pincolor='778899' pintext='&lt;b&gt;Le Bon Marche&lt;/b&gt;&lt;br /&gt;&lt;br /&gt;24, rue de S&#232;vres&lt;br /&gt;C&amp;Z Shops'/>
<mappin name='Au Bon Saint Pourcain' address='10, Bis rue Servandoni ' type='restaurant' note='$$ Mon-Fri Lun-Din ' stop='Saint-Sulpice, Mabillon' lat='48.8500794' lon='2.3346635' pincolor='6495ED' pintext='&lt;b&gt;Au Bon Saint Pourcain&lt;/b&gt;&lt;br /&gt;&lt;br /&gt;10, Bis rue Servandoni &lt;br /&gt;HungryForParis'/>
<mappin name='Le Bonbon au Palais' address='19, rue Monge' type='candy' note='Tuesday through Saturday, 11am to 7:30pm' stop='Metro??' lat='48.8476635' lon=' 2.3508381' pincolor='8B0000' pintext='&lt;b&gt;Le Bonbon au Palais&lt;/b&gt;&lt;br /&gt;&lt;br /&gt;19, rue Monge'/>
<mappin name='La Bonbonniere de Buci' address='12, rue de Buci' type='chocolate' stop='Mabillon' lat='48.85406' lon='2.337032' pincolor='D2691E' pintext='&lt;b&gt;La Bonbonniere de Buci&lt;/b&gt;&lt;br /&gt;&lt;br /&gt;12, rue de Buci&lt;br /&gt;PatisseriesOfParis'/>
<mappin name='Le Bonnons' address='6, rue Brea' type='chocolate' stop='Metro??' lat='48.8432731' lon='2.3299542' pincolor='' pintext='&lt;b&gt;Le Bonnons&lt;/b&gt;&lt;br /&gt;&lt;br /&gt;6, rue Brea&lt;br /&gt;GSoP'/>
<mappin name='Bones ' address='43, rue Godefroy Caviagnac' type='restaurant' webpage='http://www.bonesparis.com/' stop='9-Voltaire' lat='48.8565962' lon='2.3798813' pincolor='6495ED' pintext='&lt;b&gt;Bones &lt;/b&gt;&lt;br /&gt;&lt;br /&gt;43, rue Godefroy Caviagnac&lt;br /&gt;ParisByMouth'/>
<mappin name='Boucherie Desnoyer' address='45, rue boulard' type='food' note='Butcher shop' stop='Metro??' lat='48.832247' lon=' 2.327549' pincolor='778899' pintext='&lt;b&gt;Boucherie Desnoyer&lt;/b&gt;&lt;br /&gt;&lt;br /&gt;45, rue boulard&lt;br /&gt;C&amp;Z'/>
<mappin name='Boucherie Les Provinces' address='20, rue d&#39;Aligre' type='food' webpage='https://www.facebook.com/pages/Les-Provinces/488383391202062' stop='Ledru-Rollin' lat='48.8492775' lon='2.3785976' pincolor='778899' pintext='&lt;b&gt;Boucherie Les Provinces&lt;/b&gt;&lt;br /&gt;&lt;br /&gt;20, rue d&#39;Aligre'/>
<mappin name='Le Bouchon et L&#39;Assiette' address='127, rue Cardinet' type='restaurant' stop='3-Malesherbes' lat='48.8863852' lon='2.312419' pincolor='6495ED' pintext='&lt;b&gt;Le Bouchon et L&#39;Assiette&lt;/b&gt;&lt;br /&gt;&lt;br /&gt;127, rue Cardinet&lt;br /&gt;ParisByMouth'/>
<mappin name='Au Bougnat' address='26, rue Chanoinesse' type='restaurant' stop='Metro??' lat='48.8542468' lon=' 2.3502226' pincolor='6495ED' pintext='&lt;b&gt;Au Bougnat&lt;/b&gt;&lt;br /&gt;&lt;br /&gt;26, rue Chanoinesse&lt;br /&gt;Markets of Paris'/>
<mappin name='Bouillon Chartier' address='7, rue du Faubourg Montmarte' type='restaurant' webpage='http://www.restaurant-chartier.com/www/visit/' stop='8,9-Grands Boulevards' lat='48.87193' lon=' 2.34319' pincolor='6495ED' pintext='&lt;b&gt;Bouillon Chartier&lt;/b&gt;&lt;br /&gt;&lt;br /&gt;7, rue du Faubourg Montmarte&lt;br /&gt;David Lebovitz/BBC'/>
<mappin name='Bouillon Racine' address='5, rue Racine' type='restaurant' stop='Metro??' lat='48.8501828' lon=' 2.3416317' pincolor='6495ED' pintext='&lt;b&gt;Bouillon Racine&lt;/b&gt;&lt;br /&gt;&lt;br /&gt;5, rue Racine&lt;br /&gt;Markets of Paris'/>
<mappin name='Le Boulangepicier' address='73, boulevard de Courcelles' type='cafe' note='Lunch/Top Notch Parisian Take-Out' stop='Metro??' lat='48.8786004' lon=' 2.3010896' pincolor='6495ED' pintext='&lt;b&gt;Le Boulangepicier&lt;/b&gt;&lt;br /&gt;&lt;br /&gt;73, boulevard de Courcelles&lt;br /&gt;Gridskipper'/>
<mappin name='Boulangepicier' address='Inside Le Printemps, 74, boulevard Haussmann' type='cafe' note='Lunch' stop='Metro??' lat='48.873865' lon=' 2.32661' pincolor='6495ED' pintext='&lt;b&gt;Boulangepicier&lt;/b&gt;&lt;br /&gt;&lt;br /&gt;Inside Le Printemps, 74, boulevard Haussmann&lt;br /&gt;C&amp;Z Eats'/>
<mappin name='Boulanger de Monge' address='123, rue Monge' type='food' note='Baguettes' stop='Metro??' lat='48.8387029' lon=' 2.3508669' pincolor='778899' pintext='&lt;b&gt;Boulanger de Monge&lt;/b&gt;&lt;br /&gt;&lt;br /&gt;123, rue Monge'/>
<mappin name='Boulangerie Bruno Squires' address='243, rue Saint-Jacques' type='boulangerie' stop='Luxembourg' lat='48.8428592' lon='2.3417387' pincolor='E6E6FA' pintext='&lt;b&gt;Boulangerie Bruno Squires&lt;/b&gt;&lt;br /&gt;&lt;br /&gt;243, rue Saint-Jacques&lt;br /&gt;PatisseriesOfParis'/>
<mappin name='Boulangerie Eric Kayser' address='1, Boulevard du Montparnasse' type='boulangerie' stop='Metro??' lat='48.8466677' lon='2.3170022' pincolor='E6E6FA' pintext='&lt;b&gt;Boulangerie Eric Kayser&lt;/b&gt;&lt;br /&gt;&lt;br /&gt;1, Boulevard du Montparnasse&lt;br /&gt;GSoP, PatisseriesOfParis'/>
<mappin name='Boulangerie Eric Kayser' address='41, cours Saint-Emilion' type='boulangerie' stop='Metro??' lat='48.856614' lon='2.3522219' pincolor='E6E6FA' pintext='&lt;b&gt;Boulangerie Eric Kayser&lt;/b&gt;&lt;br /&gt;&lt;br /&gt;41, cours Saint-Emilion&lt;br /&gt;GSoP, PatisseriesOfParis'/>
<mappin name='Boulangerie Eric Kayser' address='4, rue de la Echelle' type='boulangerie' stop='Metro??' lat='48.8640326' lon='2.3343917' pincolor='E6E6FA' pintext='&lt;b&gt;Boulangerie Eric Kayser&lt;/b&gt;&lt;br /&gt;&lt;br /&gt;4, rue de la Echelle&lt;br /&gt;GSoP, PatisseriesOfParis'/>
<mappin name='Boulangerie Eric Kayser' address='27, rue Depart' type='boulangerie' stop='Metro??' lat='48.8415796' lon='2.3224551' pincolor='E6E6FA' pintext='&lt;b&gt;Boulangerie Eric Kayser&lt;/b&gt;&lt;br /&gt;&lt;br /&gt;27, rue Depart&lt;br /&gt;GSoP, PatisseriesOfParis'/>
<mappin name='Boulangerie Eric Kayser' address='16, rue des Petits Carreaux' type='bakery' stop='Metro??' lat='48.867046' lon=' 2.347413' pincolor='E6E6FA' pintext='&lt;b&gt;Boulangerie Eric Kayser&lt;/b&gt;&lt;br /&gt;&lt;br /&gt;16, rue des Petits Carreaux&lt;br /&gt;T&amp;L'/>
<mappin name='La Boulangerie Jean-No&#235;l Julien' address='54, rue Notre Dame des Champs' type='bakery' webpage='http://www.boulangerie-patisserie-artisanale-paris.com/' stop='Metro??' lat='48.8438260' lon='2.3307774' pincolor='E6E6FA' pintext='&lt;b&gt;La Boulangerie Jean-No&#235;l Julien&lt;/b&gt;&lt;br /&gt;&lt;br /&gt;54, rue Notre Dame des Champs&lt;br /&gt;The Girl Who Ate Everything'/>
<mappin name='La Boulangerie Jean-No&#235;l Julien' address='24, rue Saint-Martin' type='bakery' webpage='http://www.boulangerie-patisserie-artisanale-paris.com/' stop='Metro??' lat='48.8586654' lon='2.3502484' pincolor='E6E6FA' pintext='&lt;b&gt;La Boulangerie Jean-No&#235;l Julien&lt;/b&gt;&lt;br /&gt;&lt;br /&gt;24, rue Saint-Martin&lt;br /&gt;The Girl Who Ate Everything'/>
<mappin name='La Boulangerie Julien' address='85, rue Saint Dominique' type='patisserie' webpage='http://www.boulangerie-patisserie-artisanale-paris.com/' note='Breakfast' stop='Metro??' lat='48.859716' lon='2.307925' pincolor='E6E6FA' pintext='&lt;b&gt;La Boulangerie Julien&lt;/b&gt;&lt;br /&gt;&lt;br /&gt;85, rue Saint Dominique&lt;br /&gt;PatisseriesOfParis,The Girl Who Ate Everything'/>
<mappin name='La Boulangerie Julien' address='75, rue Saint-Honore' type='patisserie' webpage='http://www.boulangerie-patisserie-artisanale-paris.com/' note='Breakfast' stop='Metro??' lat='48.8611160' lon='2.3441636' pincolor='E6E6FA' pintext='&lt;b&gt;La Boulangerie Julien&lt;/b&gt;&lt;br /&gt;&lt;br /&gt;75, rue Saint-Honore&lt;br /&gt;PatisseriesOfParis,The Girl Who Ate Everything'/>
<mappin name='Boulangerie Malineau' address='18, rue Vieille du Temple' type='boulangerie' stop='Hotel de Ville, Saint-Paul' lat='48.8568023' lon='2.357142' pincolor='E6E6FA' pintext='&lt;b&gt;Boulangerie Malineau&lt;/b&gt;&lt;br /&gt;&lt;br /&gt;18, rue Vieille du Temple&lt;br /&gt;PatisseriesOfParis'/>
<mappin name='La Boulangerie Par Veronique Mauclerc' address='83, rue de Crimee' type='boulangerie' stop='Laumiere' lat='48.883311' lon='2.3848909' pincolor='E6E6FA' pintext='&lt;b&gt;La Boulangerie Par Veronique Mauclerc&lt;/b&gt;&lt;br /&gt;&lt;br /&gt;83, rue de Crimee&lt;br /&gt;PatisseriesOfParis'/>
<mappin name='Boulangerie Philippe Martin' address='40, St-Louis-en-L&#39;ile' type='boulangerie' stop='Pont Marie' lat='48.8516579' lon='2.3570686' pincolor='E6E6FA' pintext='&lt;b&gt;Boulangerie Philippe Martin&lt;/b&gt;&lt;br /&gt;&lt;br /&gt;40, St-Louis-en-L&#39;ile&lt;br /&gt;PatisseriesOfParis'/>
<mappin name='Boulangerie R&#233;gis Colin' address='53, rue Montmartre' type='boulangerie' note='The Best Galettes des Rois in Paris' stop='Metro??' lat='48.865871' lon=' 2.344521' pincolor='E6E6FA' pintext='&lt;b&gt;Boulangerie R&#233;gis Colin&lt;/b&gt;&lt;br /&gt;&lt;br /&gt;53, rue Montmartre&lt;br /&gt;Gridskipper'/>
<mappin name='Boulangerie Toro' address='59, rue d&#39;Orsel' type='bakery' note='Bakery' stop='Metro??' lat='48.883572' lon=' 2.33987' pincolor='E6E6FA' pintext='&lt;b&gt;Boulangerie Toro&lt;/b&gt;&lt;br /&gt;&lt;br /&gt;59, rue d&#39;Orsel&lt;br /&gt;C&amp;Z'/>
<mappin name='Boulangerie-Patisserie Bazin Jacques' address='85 bis, rue Charenton' type='patisserie' stop='Ledru-Rollin' lat='48.8494614' lon='2.3747585' pincolor='E6E6FA' pintext='&lt;b&gt;Boulangerie-Patisserie Bazin Jacques&lt;/b&gt;&lt;br /&gt;&lt;br /&gt;85 bis, rue Charenton&lt;br /&gt;PatisseriesOfParis'/>
<mappin name='Boulangerie-Patisserie P.P. Colas' address='178, rue de Grenelle' type='patisserie' stop='La Tour-MauBourg' lat='48.8580732' lon='2.3069175' pincolor='E6E6FA' pintext='&lt;b&gt;Boulangerie-Patisserie P.P. Colas&lt;/b&gt;&lt;br /&gt;&lt;br /&gt;178, rue de Grenelle&lt;br /&gt;PatisseriesOfParis'/>
<mappin name='Boulangerie-Patisserie Yannick Martin' address='302, rue Saint-Honore' type='patisserie' stop='Tuileries' lat='48.8651049' lon='2.331872' pincolor='E6E6FA' pintext='&lt;b&gt;Boulangerie-Patisserie Yannick Martin&lt;/b&gt;&lt;br /&gt;&lt;br /&gt;302, rue Saint-Honore&lt;br /&gt;PatisseriesOfParis'/>
<mappin name='Boulevard Richard Lenoir market' address='Boulevard Richard Lenoir' type='market' stop='Metro??' lat='48.859509' lon=' 2.372035' pincolor='FFF8DC' pintext='&lt;b&gt;Boulevard Richard Lenoir market&lt;/b&gt;&lt;br /&gt;&lt;br /&gt;Boulevard Richard Lenoir'/>
<mappin name='Bound' address='51, avenue George V' type='restaurant' note='Brunching in the City of Lights' stop='Metro??' lat='48.8709695' lon=' 2.3006018' pincolor='6495ED' pintext='&lt;b&gt;Bound&lt;/b&gt;&lt;br /&gt;&lt;br /&gt;51, avenue George V&lt;br /&gt;Gridskipper'/>
<mappin name='Bouquiniste Gastronomie' address='Quai Conti' type='shop' stop='Metro??' lat='48.8572853' lon=' 2.3384446' pincolor='8080' pintext='&lt;b&gt;Bouquiniste Gastronomie&lt;/b&gt;&lt;br /&gt;&lt;br /&gt;Quai Conti&lt;br /&gt;David Lebovitz'/>
<mappin name='Les Bouquinistes' address='53, quai des Grands-Augustins' type='restaurant' stop='Metro??' lat='48.8552520' lon=' 2.3415409' pincolor='6495ED' pintext='&lt;b&gt;Les Bouquinistes&lt;/b&gt;&lt;br /&gt;&lt;br /&gt;53, quai des Grands-Augustins&lt;br /&gt;Markets of Paris'/>
<mappin name='Les Bouquinistes' address='' type='shop' note='Les Bouquinistes' stop='Metro??' lat='0' lon='0' pincolor='8080' pintext='&lt;b&gt;Les Bouquinistes&lt;/b&gt;&lt;br /&gt;Gridskipper'/>
<mappin name='Bouquinneistes' address='Left-bank: Seine-side from Quai de la Tournelle (Metro Maubert-Mutualite) to Quai Voltaire (Metro Saint-Germain-des-Pres)' type='tosee' stop='Metro??' lat='48.85761' lon=' 2.33745' pincolor='FB7EFD' pintext='&lt;b&gt;Bouquinneistes&lt;/b&gt;&lt;br /&gt;&lt;br /&gt;Left-bank: Seine-side from Quai de la Tournelle (Metro Maubert-Mutualite) to Quai Voltaire (Metro Saint-Germain-des-Pres)&lt;br /&gt;FrenchWordADay09'/>
<mappin name='Bouquinneistes' address='Right bank: Pont Marie (Metro Pont Marie) and the Louvre (Metro Palais du Louvre).' type='tosee' stop='Metro??' lat='48.85730' lon=' 2.34599' pincolor='FB7EFD' pintext='&lt;b&gt;Bouquinneistes&lt;/b&gt;&lt;br /&gt;&lt;br /&gt;Right bank: Pont Marie (Metro Pont Marie) and the Louvre (Metro Palais du Louvre).&lt;br /&gt;FrenchWordADay09'/>
<mappin name='Bourgogne Sud' address='14, rue de Clichy' type='restaurant' webpage='http://www.bourgogne-sud.fr/' stop='13-Liège|Trinité-12' lat='48.8781906' lon='2.3303895' pincolor='6495ED' pintext='&lt;b&gt;Bourgogne Sud&lt;/b&gt;&lt;br /&gt;&lt;br /&gt;14, rue de Clichy&lt;br /&gt;ParisByMouth'/>
<mappin name='Boursault' address='71, avenue du G&#233;n&#233;ral Leclerc' type='food' note='Cheese shop' stop='Metro??' lat='48.828602' lon=' 2.327464' pincolor='778899' pintext='&lt;b&gt;Boursault&lt;/b&gt;&lt;br /&gt;&lt;br /&gt;71, avenue du G&#233;n&#233;ral Leclerc&lt;br /&gt;C&amp;Z'/>
<mappin name='Boutique Maille' address='6, place de la Madeleine' type='shop' webpage='http://www.maille.com/' note='Kitchen Store/Mustard' stop='Metro??' lat='48.8690827' lon='2.3245040' pincolor='8080' pintext='&lt;b&gt;Boutique Maille&lt;/b&gt;&lt;br /&gt;&lt;br /&gt;6, place de la Madeleine&lt;br /&gt;Gridskipper'/>
<mappin name='Boutique Maille Paris' address='6, place de la Madeleine' type='food' note='Specialty Food Shopping in Paris' stop='Metro??' lat='48.868984' lon=' 2.324310' pincolor='778899' pintext='&lt;b&gt;Boutique Maille Paris&lt;/b&gt;&lt;br /&gt;&lt;br /&gt;6, place de la Madeleine&lt;br /&gt;Gridskipper'/>
<mappin name='La Bovida' address='36, rue Montmartre' type='food' webpage='http://www.labovida.com/' note='Cookware' stop='Metro??' lat='48.8646285' lon='2.3454753' pincolor='778899' pintext='&lt;b&gt;La Bovida&lt;/b&gt;&lt;br /&gt;&lt;br /&gt;36, rue Montmartre&lt;br /&gt;Gridskipper/David Lebovitz/T&amp;L'/>
<mappin name='Braisenville' address='36, rue Condorcet' type='restaurant' stop='2-Anvers' lat='48.8800049' lon='2.3450962' pincolor='6495ED' pintext='&lt;b&gt;Braisenville&lt;/b&gt;&lt;br /&gt;&lt;br /&gt;36, rue Condorcet&lt;br /&gt;ParisByMouth'/>
<mappin name='Brasserie Balzar' address='49, rue des Ecoles' type='brasserie' webpage='http://www.brasseriebalzar.com' note='$$ Daily Lun-Din  Megnut likes it' stop='Cluny-Sorbonne' lat='48.8499237' lon=' 2.3436223' pincolor='6495ED' pintext='&lt;b&gt;Brasserie Balzar&lt;/b&gt;&lt;br /&gt;&lt;br /&gt;49, rue des Ecoles&lt;br /&gt;HungryForParis'/>
<mappin name='Brasserie de l&#39;Isle Saint Louis' address='55, quai de Bourbon' type='restaurant' webpage='http://www.labrasserie-isl.fr/' stop='7-Pont Marie' lat='48.8530818' lon='2.3533905' pincolor='6495ED' pintext='&lt;b&gt;Brasserie de l&#39;Isle Saint Louis&lt;/b&gt;&lt;br /&gt;&lt;br /&gt;55, quai de Bourbon&lt;br /&gt;ParisByMouth'/>
<mappin name='Brasserie Le Cardinal' address='1, boulevard des Italiens' type='brasserie' stop='Metro??' lat='48.8718974' lon='2.3400299' pincolor='6495ED' pintext='&lt;b&gt;Brasserie Le Cardinal&lt;/b&gt;&lt;br /&gt;&lt;br /&gt;1, boulevard des Italiens'/>
<mappin name='Brasserie Lipp' address='151, boulevard Saint-Germain' type='brasserie' note='Tourist Trap Restaurants in Paris' stop='Metro??' lat='48.8541200' lon=' 2.3326210' pincolor='6495ED' pintext='&lt;b&gt;Brasserie Lipp&lt;/b&gt;&lt;br /&gt;&lt;br /&gt;151, boulevard Saint-Germain&lt;br /&gt;Markets of Paris'/>
<mappin name='Brasserie Printemps' address='64, boulevard Haussmann' type='restaurant' webpage='http://departmentstoreparis.printemps.com/restaurants/en/pages/index.aspx#brasserie' note='Stained Glass Dome' stop='3,9-Havre - Caumartin' lat='48.873709' lon=' 2.328245' pincolor='6495ED' pintext='&lt;b&gt;Brasserie Printemps&lt;/b&gt;&lt;br /&gt;&lt;br /&gt;64, boulevard Haussmann&lt;br /&gt;FrenchWordADay09'/>
<mappin name='Bread &amp; Roses' address='25, rue Boissy d&#39;Anglas' type='restaurant' webpage='http://www.breadandroses.fr/' stop='8, 12, 14-Madeleine' lat='48.8693421' lon='2.3218826' pincolor='6495ED' pintext='&lt;b&gt;Bread &amp; Roses&lt;/b&gt;&lt;br /&gt;&lt;br /&gt;25, rue Boissy d&#39;Anglas&lt;br /&gt;ParisByMouth'/>
<mappin name='Bread &amp; Roses' address='7, rue de Fleurus' type='restaurant' webpage='http://www.breadandroses.fr/' stop='4-Saint-Placide' lat='48.8470447' lon='2.3315646' pincolor='6495ED' pintext='&lt;b&gt;Bread &amp; Roses&lt;/b&gt;&lt;br /&gt;&lt;br /&gt;7, rue de Fleurus&lt;br /&gt;ParisByMouth'/>
<mappin name='Bread &amp; Roses' address='7, rue de Fleurus' type='bakery' note='Bakery' stop='Metro??' lat='48.846984' lon=' 2.33144' pincolor='E6E6FA' pintext='&lt;b&gt;Bread &amp; Roses&lt;/b&gt;&lt;br /&gt;&lt;br /&gt;7, rue de Fleurus&lt;br /&gt;C&amp;Z'/>
<mappin name='Breakfast at Eric Kayser &amp; Starbucks' address='Carrefour de l&#39;Odeon' type='cafe' note='Paris Romance Sans Cliche' stop='Metro??' lat='48.851820' lon=' 2.338609' pincolor='6495ED' pintext='&lt;b&gt;Breakfast at Eric Kayser &amp; Starbucks&lt;/b&gt;&lt;br /&gt;&lt;br /&gt;Carrefour de l&#39;Odeon&lt;br /&gt;Gridskipper'/>
<mappin name='Breakfast in America' address='17, rue des Ecoles' type='restaurant' note='American Cuisine in Paris' stop='Metro??' lat='48.8477976' lon=' 2.3511992' pincolor='6495ED' pintext='&lt;b&gt;Breakfast in America&lt;/b&gt;&lt;br /&gt;&lt;br /&gt;17, rue des Ecoles&lt;br /&gt;Gridskipper'/>
<mappin name='Breakfast in America' address='4, rue Malher' type='restaurant' note='American Cuisine in Paris' stop='Metro??' lat='48.855546' lon=' 2.361197' pincolor='6495ED' pintext='&lt;b&gt;Breakfast in America&lt;/b&gt;&lt;br /&gt;&lt;br /&gt;4, rue Malher&lt;br /&gt;Gridskipper'/>
<mappin name='Breizh Cafe' address='109, rue Vieille du Temple' type='cafe' webpage='http://www.breizhcafe.com/' note='$ Wed-Mon (closed tue) Crepes' stop='Filles du Calivaire' lat='48.86058' lon=' 2.36187' pincolor='6495ED' pintext='&lt;b&gt;Breizh Cafe&lt;/b&gt;&lt;br /&gt;&lt;br /&gt;109, rue Vieille du Temple&lt;br /&gt;David Lebovitz / HungryForParis'/>
<mappin name='Breizh Caf&#233; ' address='109, rue Vieille du Temple' type='restaurant' webpage='http://www.breizhcafe.com/' stop='8-Filles du Calvaire' lat='48.8606353' lon='2.3618604' pincolor='6495ED' pintext='&lt;b&gt;Breizh Caf&#233; &lt;/b&gt;&lt;br /&gt;&lt;br /&gt;109, rue Vieille du Temple&lt;br /&gt;ParisByMouth,HungryForParis'/>
<mappin name='La Briciola' address='64, rue Charlot' type='restaurant' stop='8-Filles du Calvaire' lat='48.8640039' lon='2.3640859' pincolor='6495ED' pintext='&lt;b&gt;La Briciola&lt;/b&gt;&lt;br /&gt;&lt;br /&gt;64, rue Charlot&lt;br /&gt;ParisByMouth'/>
<mappin name='La Brioche Doree' address='56, rue de la Chaussee d&#39;Antin' type='restaurant' webpage='http://www.briochedoree.fr/' stop='Metro??' lat='48.8744219' lon='2.3327038' pincolor='6495ED' pintext='&lt;b&gt;La Brioche Doree&lt;/b&gt;&lt;br /&gt;&lt;br /&gt;56, rue de la Chaussee d&#39;Antin&lt;br /&gt;FrenchWordADay09'/>
<mappin name='Le Bristol' address='112, rue du Faubourg Saint-Honore' type='bistro' webpage='http://www.lebristolparis.com' note='$$$$ Daily Lun-Din Gastro / Paris&#39; 3-Star Michelin Restaurants' stop='Miromesnil' lat='48.871635' lon=' 2.314678' pincolor='6495ED' pintext='&lt;b&gt;Le Bristol&lt;/b&gt;&lt;br /&gt;&lt;br /&gt;112, rue du Faubourg Saint-Honore&lt;br /&gt;C&amp;Z Eats / HungryForParis'/>
